,MUNICIPIOS,latitude,longitude,SISTEMAS_GD,POTÊNCIA (w),N_MOD,TOTAL PESO (kg),TOTAL VIDRO (kg),TOTAL ALUMÍNIO (kg),TOTAL SILÍCIO (kg),TOTAL POLÍMERO (kg),TOTAL ZINCO (kg),TOTAL CHUMBO (kg),TOTAL COBRE (kg),TOTAL PRATA (kg)
0,Rio Branco,-15.2483,-58.1259,4085,4659.0,12512.0,2419992.0,1790794.08,241999.2,72599.76,157299.48,2903.9903999999997,2419.992,14519.952,145.19952
1,Rio Branco,-9.97499,-67.8243,4085,1074.0,2233.0,2419992.0,1790794.08,241999.2,72599.76,157299.48,2903.9903999999997,2419.992,14519.952,145.19952
2,Tarauacá,-8.15697,-70.7722,68,2882.0,5177.0,33434.0,24741.16,3343.4,1003.02,2173.21,40.120799999999996,33.434,200.60399999999998,2.00604
3,Senador Guiomard,-10.1497,-67.7362,138,13947.0,24694.0,149091.0,110327.34,14909.1,4472.73,9690.915,178.90919999999997,149.091,894.546,8.94546
4,Brasiléia,-10.995,-68.7497,74,4302.0,9725.0,101262.0,74933.88,10126.2,3037.86,6582.03,121.5144,101.262,607.572,6.07572
5,Porto Acre,-9.58138,-67.5478,88,289.0,594.0,39236.0,29034.64,3923.6,1177.08,2550.34,47.0832,39.236,235.416,2.35416
6,Cruzeiro do Sul,-22.9624,-52.1622,1116,505.0,833.0,831904.0,615608.96,83190.4,24957.12,54073.76,998.2847999999999,831.904,4991.424,49.91424
7,Cruzeiro do Sul,-29.5148,-51.9928,1116,1411.0,2820.0,831904.0,615608.96,83190.4,24957.12,54073.76,998.2847999999999,831.904,4991.424,49.91424
8,Cruzeiro do Sul,-7.62762,-72.6756,1116,278.0,437.0,831904.0,615608.96,83190.4,24957.12,54073.76,998.2847999999999,831.904,4991.424,49.91424
9,Capixaba,-10.566,-67.686,15,176.0,295.0,24666.0,18252.84,2466.6,739.98,1603.29,29.5992,24.666,147.996,1.47996
10,Acrelândia,-9.82581,-66.8972,112,613.0,992.0,84590.0,62596.6,8459.0,2537.7,5498.35,101.508,84.59,507.54,5.0754
11,Feijó,-8.17054,-70.351,77,1791.0,4452.0,53078.0,39277.72,5307.8,1592.34,3450.07,63.693599999999996,53.078,318.468,3.18468
12,Xapuri,-10.6516,-68.4969,38,3501.0,8161.0,32215.0,23839.1,3221.5,966.4499999999999,2093.975,38.657999999999994,32.215,193.29,1.9329
13,Plácido de Castro,-10.2806,-67.1371,81,3716.0,6458.0,44445.0,32889.3,4444.5,1333.35,2888.925,53.333999999999996,44.445,266.67,2.6667
14,Jordão,-9.1908,-71.9503,2,152.0,239.0,490.0,362.6,49.0,14.7,31.85,0.588,0.49,2.94,0.0294
15,Sena Madureira,-9.06596,-68.6571,81,161.0,254.0,71750.0,53095.0,7175.0,2152.5,4663.75,86.1,71.75,430.5,4.305
16,Epitaciolândia,-11.0188,-68.7341,45,490.0,730.0,29945.0,22159.3,2994.5,898.35,1946.425,35.934,29.945,179.67,1.7967
17,Bujari,-9.81528,-67.955,21,1498.0,3525.0,16405.0,12139.7,1640.5,492.15,1066.325,19.686,16.405,98.43,0.9843
18,Mâncio Lima,-7.61657,-72.8997,26,9418.0,15538.0,19945.0,14759.3,1994.5,598.35,1296.425,23.933999999999997,19.945,119.67,1.1967
19,Assis Brasil,-10.9298,-69.5738,7,1455.0,2436.0,5630.0,4166.2,563.0,168.89999999999998,365.95000000000005,6.756,5.630000000000001,33.779999999999994,0.33780000000000004
20,Manoel Urbano,-8.83291,-69.2679,4,591.0,920.0,1675.0,1239.5,167.5,50.25,108.875,2.01,1.675,10.05,0.10049999999999999
21,Porto Walter,-8.26323,-72.7537,1,402.0,794.0,750.0,555.0,75.0,22.5,48.75,0.8999999999999999,0.75,4.5,0.045
22,Rodrigues Alves,-7.73864,-72.661,11,1009.0,1720.0,6685.0,4946.9,668.5,200.55,434.525,8.022,6.6850000000000005,40.11,0.4011
23,Marechal Thaumaturgo,-8.93898,-72.7997,6,3653.0,6804.0,4590.0,3396.6,459.0,137.7,298.35,5.507999999999999,4.59,27.54,0.2754
24,Maceió,-9.66599,-35.735,8600,1586.0,2876.0,5151595.0,3812180.3,515159.5,154547.85,334853.675,6181.914,5151.595,30909.57,309.0957
25,Marechal Deodoro,-9.70971,-35.8967,1601,1512.0,2985.0,804642.0,595435.08,80464.2,24139.26,52301.73,965.5704,804.642,4827.852,48.27852
26,Paripueira,-9.46313,-35.552,343,4109.0,13783.0,170093.0,125868.81999999999,17009.3,5102.79,11056.045,204.11159999999998,170.093,1020.558,10.20558
27,São Miguel dos Campos,-9.78301,-36.0971,288,15039.0,29795.0,138548.0,102525.52,13854.8,4156.44,9005.62,166.2576,138.548,831.288,8.31288
28,Coité do Nóia,-9.63348,-36.5845,70,417.0,678.0,30995.0,22936.3,3099.5,929.85,2014.6750000000002,37.193999999999996,30.995,185.97,1.8597000000000001
29,Piranhas,-9.624,-37.757,471,594.0,936.0,387150.0,286491.0,38715.0,11614.5,25164.75,464.58,387.15000000000003,2322.9,23.229
30,Piranhas,-16.4258,-51.8235,471,345.0,529.0,387150.0,286491.0,38715.0,11614.5,25164.75,464.58,387.15000000000003,2322.9,23.229
31,Passo de Camaragibe,-9.24511,-35.4745,59,231.0,449.0,53106.0,39298.44,5310.6,1593.1799999999998,3451.89,63.727199999999996,53.106,318.636,3.18636
32,Arapiraca,-9.75487,-36.6615,2895,5690.0,10802.0,1974281.0,1460967.94,197428.1,59228.43,128328.265,2369.1371999999997,1974.281,11845.686,118.45686
33,Junqueiro,-9.90696,-36.4803,153,475.0,725.0,85448.0,63231.52,8544.8,2563.44,5554.12,102.5376,85.44800000000001,512.688,5.12688
34,Coruripe,-10.1276,-36.1717,308,5808.0,10694.0,211328.0,156382.72,21132.8,6339.84,13736.32,253.59359999999998,211.328,1267.968,12.679680000000001
35,Pilar,-7.26403,-35.2523,196,387.0,592.0,395696.0,292815.04,39569.6,11870.88,25720.24,474.83519999999993,395.696,2374.176,23.74176
36,Pilar,-9.60135,-35.9543,196,1903.0,3200.0,395696.0,292815.04,39569.6,11870.88,25720.24,474.83519999999993,395.696,2374.176,23.74176
37,Barra de São Miguel,-7.74603,-36.3209,512,60.0,90.0,366149.0,270950.26,36614.9,10984.47,23799.685,439.37879999999996,366.149,2196.8940000000002,21.96894
38,Barra de São Miguel,-9.83842,-35.9057,512,1870.0,2903.0,366149.0,270950.26,36614.9,10984.47,23799.685,439.37879999999996,366.149,2196.8940000000002,21.96894
39,Penedo,-10.2874,-36.5819,344,363.0,608.0,172033.0,127304.42,17203.3,5160.99,11182.145,206.43959999999998,172.03300000000002,1032.198,10.32198
40,Boca da Mata,-9.64308,-36.2125,98,1421.0,3289.0,43125.0,31912.5,4312.5,1293.75,2803.125,51.75,43.125,258.75,2.5875
41,Jequiá da Praia,-10.0133,-36.0142,42,649.0,1755.0,20116.0,14885.84,2011.6,603.48,1307.54,24.1392,20.116,120.696,1.20696
42,Palmeira dos Índios,-9.40568,-36.6328,557,1135.0,1925.0,372836.0,275898.64,37283.6,11185.08,24234.34,447.40319999999997,372.836,2237.016,22.370160000000002
43,Rio Largo,-9.47783,-35.8394,386,4339.0,13924.0,340553.0,252009.22,34055.3,10216.59,22135.945,408.6636,340.553,2043.318,20.43318
44,São José da Tapera,-9.55768,-37.3831,68,7091.0,15590.0,32109.0,23760.66,3210.9,963.27,2087.085,38.5308,32.109,192.654,1.92654
45,Palestina,-9.67493,-37.339,377,3589.0,6777.0,226158.0,167356.92,22615.8,6784.74,14700.27,271.3896,226.15800000000002,1356.948,13.56948
46,Palestina,-20.39,-49.4309,377,1022.0,2140.0,226158.0,167356.92,22615.8,6784.74,14700.27,271.3896,226.15800000000002,1356.948,13.56948
47,Igaci,-9.53768,-36.6372,92,302.0,900.0,39619.0,29318.06,3961.9,1188.57,2575.235,47.5428,39.619,237.714,2.37714
48,Messias,-9.39384,-35.8392,37,675.0,1069.0,46893.0,34700.82,4689.3,1406.79,3048.045,56.27159999999999,46.893,281.358,2.81358
49,São José da Laje,-9.01278,-36.0515,55,4940.0,9514.0,22865.0,16920.1,2286.5,685.9499999999999,1486.2250000000001,27.438,22.865000000000002,137.19,1.3719000000000001
50,Santana do Ipanema,-9.36999,-37.248,407,157.0,238.0,467369.0,345853.06,46736.9,14021.07,30378.985,560.8427999999999,467.369,2804.214,28.04214
51,Teotônio Vilela,-9.91656,-36.3492,198,291.0,469.0,115221.0,85263.54,11522.1,3456.6299999999997,7489.365,138.2652,115.221,691.326,6.91326
52,Viçosa,-5.98253,-37.9462,932,593.0,1324.0,486046.0,359674.04,48604.6,14581.38,31592.99,583.2552,486.046,2916.276,29.162760000000002
53,Viçosa,-9.36763,-36.2431,932,2676.0,4752.0,486046.0,359674.04,48604.6,14581.38,31592.99,583.2552,486.046,2916.276,29.162760000000002
54,Viçosa,-20.7559,-42.8742,932,259.0,450.0,486046.0,359674.04,48604.6,14581.38,31592.99,583.2552,486.046,2916.276,29.162760000000002
55,Delmiro Gouveia,-9.38534,-37.9987,438,1244.0,2508.0,310361.0,229667.13999999998,31036.1,9310.83,20173.465,372.4332,310.361,1862.166,18.621660000000002
56,Piaçabuçu,-10.406,-36.434,63,464.0,893.0,41168.0,30464.32,4116.8,1235.04,2675.92,49.401599999999995,41.168,247.008,2.4700800000000003
57,Satuba,-9.56911,-35.8227,168,2059.0,5747.0,70548.0,52205.52,7054.8,2116.44,4585.62,84.65759999999999,70.548,423.288,4.23288
58,Atalaia,-23.1517,-52.0551,304,577.0,1258.0,232210.0,171835.4,23221.0,6966.299999999999,15093.650000000001,278.652,232.21,1393.26,13.9326
59,Atalaia,-9.5119,-36.0086,304,11714.0,30255.0,232210.0,171835.4,23221.0,6966.299999999999,15093.650000000001,278.652,232.21,1393.26,13.9326
60,Craíbas,-9.6178,-36.7697,93,595.0,1086.0,40553.0,30009.22,4055.3,1216.59,2635.945,48.663599999999995,40.553000000000004,243.318,2.43318
61,São Miguel dos Milagres,-9.26493,-35.3763,121,257.0,493.0,101318.0,74975.32,10131.8,3039.54,6585.67,121.5816,101.318,607.908,6.07908
62,Flexeiras,-9.27281,-35.7139,32,100.0,160.0,40133.0,29698.420000000002,4013.3,1203.99,2608.645,48.1596,40.133,240.798,2.40798
63,Murici,-9.30682,-35.9428,139,1790.0,2896.0,96151.0,71151.74,9615.1,2884.5299999999997,6249.8150000000005,115.38119999999999,96.151,576.906,5.7690600000000005
64,Batalha,-4.0223,-42.0787,336,1687.0,2640.0,136579.0,101068.46,13657.9,4097.37,8877.635,163.89479999999998,136.579,819.474,8.19474
65,Batalha,-9.6742,-37.133,336,1035.0,1486.0,136579.0,101068.46,13657.9,4097.37,8877.635,163.89479999999998,136.579,819.474,8.19474
66,Lagoa da Canoa,-9.83291,-36.7413,61,341.0,542.0,33750.0,24975.0,3375.0,1012.5,2193.75,40.5,33.75,202.5,2.025
67,Igreja Nova,-10.1235,-36.6597,64,200.0,287.0,23265.0,17216.1,2326.5,697.9499999999999,1512.2250000000001,27.918,23.265,139.59,1.3959
68,Quebrangulo,-9.32001,-36.4692,33,1550.0,2780.0,30866.0,22840.84,3086.6,925.98,2006.29,37.039199999999994,30.866,185.196,1.85196
69,União dos Palmares,-9.15921,-36.0223,243,3618.0,6674.0,126500.0,93610.0,12650.0,3795.0,8222.5,151.79999999999998,126.5,759.0,7.59
70,Santana do Mundaú,-9.17141,-36.2176,23,20732.0,38638.0,8605.0,6367.7,860.5,258.15,559.325,10.325999999999999,8.605,51.63,0.5163
71,Maragogi,-9.00744,-35.2267,295,216.0,446.0,184592.0,136598.08000000002,18459.2,5537.759999999999,11998.480000000001,221.51039999999998,184.592,1107.552,11.075520000000001
72,Anadia,-9.68489,-36.3078,96,1416.0,2622.0,59324.0,43899.76,5932.4,1779.72,3856.06,71.18879999999999,59.324000000000005,355.944,3.55944
73,Dois Riachos,-9.38465,-37.0965,31,2250.0,3898.0,12790.0,9464.6,1279.0,383.7,831.35,15.347999999999999,12.790000000000001,76.74,0.7674
74,São Luís do Quitunde,-9.31816,-35.5606,57,1777.0,3346.0,48925.0,36204.5,4892.5,1467.75,3180.125,58.71,48.925000000000004,293.55,2.9355
75,Poço das Trincheiras,-9.30742,-37.2889,47,3446.0,7100.0,14515.0,10741.1,1451.5,435.45,943.475,17.418,14.515,87.09,0.8709
76,São Sebastião,-23.7951,-45.4143,1082,11255.0,23130.0,569842.0,421683.08,56984.2,17095.26,37039.73,683.8104,569.842,3419.052,34.19052
77,São Sebastião,-9.93043,-36.559,1082,3140.0,5275.0,569842.0,421683.08,56984.2,17095.26,37039.73,683.8104,569.842,3419.052,34.19052
78,Taquarana,-9.64529,-36.4928,122,1515.0,3425.0,55184.0,40836.16,5518.4,1655.52,3586.96,66.2208,55.184000000000005,331.104,3.31104
79,Estrela de Alagoas,-9.39089,-36.7644,32,735.0,1625.0,16105.0,11917.7,1610.5,483.15,1046.825,19.325999999999997,16.105,96.63000000000001,0.9662999999999999
80,Traipu,-9.96262,-37.0071,50,309.0,821.0,50420.0,37310.8,5042.0,1512.6,3277.3,60.504,50.42,302.52,3.0252
81,Major Isidoro,-9.53009,-36.992,81,138.0,212.0,54565.0,40378.1,5456.5,1636.95,3546.725,65.478,54.565000000000005,327.39,3.2739000000000003
82,Matriz de Camaragibe,-9.15437,-35.5243,47,858.0,1413.0,28350.0,20979.0,2835.0,850.5,1842.75,34.019999999999996,28.35,170.1,1.701
83,Cajueiro,-9.3994,-36.1559,43,1954.0,3183.0,31601.0,23384.74,3160.1,948.03,2054.065,37.9212,31.601,189.606,1.89606
84,Porto de Pedras,-9.16006,-35.3049,97,855.0,1392.0,82556.0,61091.44,8255.6,2476.68,5366.14,99.06719999999999,82.556,495.336,4.95336
85,Campo Alegre,-26.195,-49.2676,280,112.0,179.0,317525.0,234968.5,31752.5,9525.75,20639.125,381.03,317.52500000000003,1905.15,19.0515
86,Campo Alegre,-9.78451,-36.3525,280,487.0,742.0,317525.0,234968.5,31752.5,9525.75,20639.125,381.03,317.52500000000003,1905.15,19.0515
87,Capela,-9.41504,-36.0826,138,1117.0,1849.0,75869.0,56143.06,7586.9,2276.0699999999997,4931.485000000001,91.0428,75.869,455.214,4.5521400000000005
88,Capela,-10.5069,-37.0628,138,3408.0,6795.0,75869.0,56143.06,7586.9,2276.0699999999997,4931.485000000001,91.0428,75.869,455.214,4.5521400000000005
89,Maribondo,-9.58353,-36.3045,85,367.0,626.0,45757.0,33860.18,4575.7,1372.71,2974.205,54.90839999999999,45.757,274.54200000000003,2.74542
90,Barra de Santo Antônio,-9.4023,-35.5101,159,3848.0,6791.0,116178.0,85971.72,11617.8,3485.34,7551.57,139.4136,116.178,697.068,6.970680000000001
91,Japaratinga,-9.08746,-35.2634,81,1172.0,2111.0,54321.0,40197.54,5432.1,1629.6299999999999,3530.8650000000002,65.1852,54.321000000000005,325.926,3.25926
92,Chã Preta,-9.2556,-36.2983,21,508.0,932.0,17385.0,12864.9,1738.5,521.55,1130.025,20.862,17.385,104.31,1.0431000000000001
93,Pindoba,-9.47382,-36.2918,8,1613.0,2902.0,2845.0,2105.3,284.5,85.35,184.925,3.4139999999999997,2.845,17.07,0.17070000000000002
94,Porto Calvo,-9.05195,-35.3987,62,2072.0,3820.0,52885.0,39134.9,5288.5,1586.55,3437.525,63.461999999999996,52.885000000000005,317.31,3.1731
95,Minador do Negrão,-9.31236,-36.8696,18,6354.0,13513.0,12940.0,9575.6,1294.0,388.2,841.1,15.527999999999999,12.94,77.64,0.7764
96,Limoeiro de Anadia,-9.74098,-36.5121,113,23386.0,51045.0,117900.0,87246.0,11790.0,3537.0,7663.5,141.48,117.9,707.4,7.074
97,Porto Real do Colégio,-10.1849,-36.8376,117,2994.0,4765.0,52835.0,39097.9,5283.5,1585.05,3434.275,63.401999999999994,52.835,317.01,3.1701
98,Cacimbinhas,-9.40121,-36.9911,49,456.0,836.0,34086.0,25223.64,3408.6,1022.5799999999999,2215.59,40.9032,34.086,204.51600000000002,2.04516
99,Campo Grande,-9.95542,-36.7926,24114,21693.0,41165.0,13206698.0,9772956.52,1320669.8,396200.94,858435.37,15848.037599999998,13206.698,79240.18800000001,792.40188
100,Campo Grande,-20.4486,-54.6295,24114,212.0,384.0,13206698.0,9772956.52,1320669.8,396200.94,858435.37,15848.037599999998,13206.698,79240.18800000001,792.40188
101,Carneiros,-9.48476,-37.3773,11,710.0,1168.0,5075.0,3755.5,507.5,152.25,329.875,6.09,5.075,30.45,0.3045
102,Paulo Jacinto,-9.36792,-36.3672,25,192.0,293.0,10540.0,7799.6,1054.0,316.2,685.1,12.648,10.540000000000001,63.24,0.6324
103,Feliz Deserto,-10.2935,-36.3028,15,1556.0,3351.0,21995.0,16276.3,2199.5,659.85,1429.675,26.393999999999995,21.995,131.97,1.3197
104,Belém,-1.4554,-48.4898,10585,981.0,1639.0,7263628.0,5375084.72,726362.8,217908.84,472135.82,8716.353599999999,7263.628000000001,43581.768000000004,435.81768
105,Belém,-6.74261,-35.5166,10585,4749.0,7990.0,7263628.0,5375084.72,726362.8,217908.84,472135.82,8716.353599999999,7263.628000000001,43581.768000000004,435.81768
106,Belém,-9.57047,-36.4904,10585,1152.0,1861.0,7263628.0,5375084.72,726362.8,217908.84,472135.82,8716.353599999999,7263.628000000001,43581.768000000004,435.81768
107,Olivença,-9.51954,-37.1954,24,1003.0,1808.0,19115.0,14145.1,1911.5,573.4499999999999,1242.4750000000001,22.938,19.115,114.69,1.1469
108,Pão de Açúcar,-9.74032,-37.4403,103,331.0,546.0,42401.0,31376.74,4240.1,1272.03,2756.065,50.88119999999999,42.401,254.406,2.54406
109,Feira Grande,-9.89859,-36.6815,90,1100.0,1679.0,41977.0,31062.98,4197.7,1259.31,2728.505,50.3724,41.977000000000004,251.862,2.51862
110,Girau do Ponciano,-9.88404,-36.8316,85,2519.0,5568.0,60151.0,44511.74,6015.1,1804.53,3909.815,72.18119999999999,60.151,360.906,3.60906
111,Monteirópolis,-9.60357,-37.2505,12,692.0,1650.0,15985.0,11828.9,1598.5,479.54999999999995,1039.025,19.182,15.985,95.91,0.9591000000000001
112,Água Branca,-5.88856,-42.637,282,911.0,1575.0,163883.0,121273.42,16388.3,4916.49,10652.395,196.65959999999998,163.883,983.298,9.832980000000001
113,Água Branca,-7.51144,-37.6357,282,1353.0,2520.0,163883.0,121273.42,16388.3,4916.49,10652.395,196.65959999999998,163.883,983.298,9.832980000000001
114,Água Branca,-9.262,-37.938,282,7768.0,13293.0,163883.0,121273.42,16388.3,4916.49,10652.395,196.65959999999998,163.883,983.298,9.832980000000001
115,Inhapi,-9.22594,-37.7509,36,2988.0,7177.0,16940.0,12535.6,1694.0,508.2,1101.1000000000001,20.328,16.94,101.64,1.0164
116,Roteiro,-9.83503,-35.9782,10,1247.0,2332.0,7255.0,5368.700000000001,725.5,217.64999999999998,471.57500000000005,8.706,7.255,43.53,0.4353
117,Ibateguara,-8.97823,-35.9373,24,2904.0,4937.0,8962.0,6631.88,896.2,268.86,582.53,10.754399999999999,8.962,53.772,0.53772
118,Santa Luzia do Norte,-9.6037,-35.8232,36,1289.0,2703.0,16088.0,11905.12,1608.8,482.64,1045.72,19.3056,16.088,96.528,0.96528
119,São Brás,-10.1141,-36.8522,16,1997.0,2959.0,4436.0,3282.64,443.6,133.07999999999998,288.34000000000003,5.3232,4.436,26.616,0.26616
120,Senador Rui Palmeira,-9.46986,-37.4576,25,12284.0,20452.0,10966.0,8114.84,1096.6,328.97999999999996,712.7900000000001,13.159199999999998,10.966000000000001,65.796,0.65796
121,Pariconha,-9.25634,-37.9988,31,2182.0,3493.0,9305.0,6885.7,930.5,279.15,604.825,11.165999999999999,9.305,55.83,0.5583
122,Mata Grande,-9.11824,-37.7323,27,773.0,1484.0,12475.0,9231.5,1247.5,374.25,810.875,14.969999999999999,12.475,74.85,0.7485
123,Ouro Branco,-20.5263,-43.6962,631,510.0,876.0,292479.0,216434.46,29247.9,8774.369999999999,19011.135000000002,350.97479999999996,292.479,1754.874,17.54874
124,Ouro Branco,-6.6958,-36.9428,631,1924.0,4117.0,292479.0,216434.46,29247.9,8774.369999999999,19011.135000000002,350.97479999999996,292.479,1754.874,17.54874
125,Ouro Branco,-9.15884,-37.3556,631,1100.0,2348.0,292479.0,216434.46,29247.9,8774.369999999999,19011.135000000002,350.97479999999996,292.479,1754.874,17.54874
126,Coqueiro Seco,-9.63715,-35.7994,11,526.0,922.0,6805.0,5035.7,680.5,204.14999999999998,442.32500000000005,8.165999999999999,6.805000000000001,40.83,0.4083
127,Jacaré dos Homens,-9.63545,-37.2076,28,1528.0,2746.0,13977.0,10342.98,1397.7,419.31,908.5050000000001,16.772399999999998,13.977,83.862,0.83862
128,Novo Lino,-8.94191,-35.664,14,3104.0,5915.0,8195.0,6064.299999999999,819.5,245.85,532.6750000000001,9.834,8.195,49.17,0.4917
129,Jundiá,-6.26866,-35.3495,24,2222.0,4125.0,7276.0,5384.24,727.6,218.28,472.94,8.7312,7.276,43.656,0.43656
130,Jundiá,-8.93297,-35.5669,24,8259.0,19765.0,7276.0,5384.24,727.6,218.28,472.94,8.7312,7.276,43.656,0.43656
131,Belo Monte,-9.82272,-37.277,15,8092.0,16513.0,7380.0,5461.2,738.0,221.39999999999998,479.7,8.856,7.38,44.28,0.4428
132,Branquinha,-9.23342,-36.0162,12,652.0,1202.0,23635.0,17489.9,2363.5,709.05,1536.275,28.361999999999995,23.635,141.81,1.4181000000000001
133,Mar Vermelho,-9.44739,-36.3881,23,259.0,531.0,16395.0,12132.3,1639.5,491.84999999999997,1065.675,19.674,16.395,98.37,0.9837
134,Colônia Leopoldina,-8.91806,-35.7214,38,260.0,461.0,19904.0,14728.960000000001,1990.4,597.12,1293.76,23.8848,19.904,119.424,1.19424
135,Maravilha,-9.23045,-37.3524,274,1790.0,4996.0,212352.0,157140.48,21235.2,6370.5599999999995,13802.880000000001,254.8224,212.352,1274.112,12.74112
136,Maravilha,-26.7665,-53.1737,274,11159.0,19549.0,212352.0,157140.48,21235.2,6370.5599999999995,13802.880000000001,254.8224,212.352,1274.112,12.74112
137,Canapi,-9.11932,-37.5967,34,1639.0,2609.0,17570.0,13001.800000000001,1757.0,527.1,1142.05,21.084,17.57,105.42,1.0542
138,Joaquim Gomes,-9.1328,-35.7474,13,207.0,347.0,8865.0,6560.1,886.5,265.95,576.225,10.637999999999998,8.865,53.19,0.5319
139,Jacuípe,-8.83951,-35.4591,8,104.0,167.0,16855.0,12472.699999999999,1685.5,505.65000000000003,1095.575,20.226,16.855,101.13,1.0113
140,Campestre,-21.7079,-46.2381,386,627.0,1204.0,243988.0,180551.12,24398.8,7319.639999999999,15859.22,292.7856,243.988,1463.928,14.63928
141,Campestre,-8.84723,-35.5685,386,3420.0,7067.0,243988.0,180551.12,24398.8,7319.639999999999,15859.22,292.7856,243.988,1463.928,14.63928
142,Jaramataia,-9.66224,-37.0046,18,4104.0,8631.0,10745.0,7951.3,1074.5,322.34999999999997,698.4250000000001,12.893999999999998,10.745000000000001,64.47,0.6447
143,Manaus,-3.11866,-60.0212,8057,80.0,123.0,8731326.0,6461181.24,873132.6000000001,261939.78,567536.1900000001,10477.591199999999,8731.326000000001,52387.956,523.87956
144,Manacapuru,-3.29066,-60.6216,50,8902.0,17505.0,51367.0,38011.58,5136.7,1541.01,3338.855,61.64039999999999,51.367000000000004,308.202,3.08202
145,Parintins,-2.63741,-56.729,61,1545.0,2838.0,44096.0,32631.04,4409.6,1322.8799999999999,2866.2400000000002,52.9152,44.096000000000004,264.576,2.64576
146,Presidente Figueiredo,-2.02981,-60.0234,23,28.0,67.0,16838.0,12460.119999999999,1683.8,505.14,1094.47,20.205599999999997,16.838,101.02799999999999,1.01028
147,Apuí,-7.19409,-59.896,1,30.0,43.0,1496.0,1107.04,149.6,44.879999999999995,97.24000000000001,1.7952,1.496,8.976,0.08976
148,Borba,-4.39154,-59.5874,1,631.0,1001.0,4576.0,3386.24,457.6,137.28,297.44,5.491199999999999,4.5760000000000005,27.456,0.27456
149,Iranduba,-3.27479,-60.19,94,325.0,576.0,300900.0,222666.0,30090.0,9027.0,19558.5,361.08,300.9,1805.4,18.054000000000002
150,Nova Olinda do Norte,-3.90037,-59.094,1,196.0,288.0,242.0,179.07999999999998,24.200000000000003,7.26,15.73,0.2904,0.242,1.452,0.01452
151,Humaitá,-27.5691,-53.9695,382,1014.0,2210.0,196253.0,145227.22,19625.3,5887.59,12756.445,235.50359999999998,196.25300000000001,1177.518,11.77518
152,Humaitá,-7.51171,-63.0327,382,1310.0,2458.0,196253.0,145227.22,19625.3,5887.59,12756.445,235.50359999999998,196.25300000000001,1177.518,11.77518
153,Coari,-4.09412,-63.1441,14,2876.0,5346.0,14377.0,10638.98,1437.7,431.31,934.505,17.252399999999998,14.377,86.262,0.8626199999999999
154,Codajás,-3.83053,-62.0658,4,24615.0,71918.0,4056.0,3001.44,405.6,121.68,263.64,4.8671999999999995,4.056,24.336,0.24336
155,Novo Airão,-2.63637,-60.9434,11,895.0,1711.0,17725.0,13116.5,1772.5,531.75,1152.125,21.27,17.725,106.35,1.0635
156,Itacoatiara,-3.13861,-58.4449,46,3787.0,6680.0,45683.0,33805.42,4568.3,1370.49,2969.395,54.819599999999994,45.683,274.098,2.74098
157,Nhamundá,-2.20793,-56.7112,6,5405.0,8588.0,3315.0,2453.1,331.5,99.45,215.475,3.9779999999999998,3.315,19.89,0.19890000000000002
158,Manicoré,-5.80462,-61.2895,7,714.0,1202.0,6081.0,4499.9400000000005,608.1,182.43,395.265,7.297199999999999,6.0809999999999995,36.486000000000004,0.36486
159,Rio Preto da Eva,-2.7045,-59.6858,16,9570.0,20068.0,18528.0,13710.72,1852.8,555.84,1204.32,22.2336,18.528000000000002,111.168,1.11168
160,Lábrea,-7.26413,-64.7948,7,309.0,606.0,9355.0,6922.700000000001,935.5,280.65,608.075,11.225999999999999,9.355,56.13,0.5613
161,Urucurituba,-3.12841,-58.1496,3,38.0,61.0,650.0,481.0,65.0,19.5,42.25,0.7799999999999999,0.65,3.9,0.039
162,Careiro,-3.76803,-60.369,5,9074.0,20428.0,3990.0,2952.6,399.0,119.7,259.35,4.787999999999999,3.99,23.939999999999998,0.2394
163,Urucará,-2.52936,-57.7538,2,988.0,1615.0,3750.0,2775.0,375.0,112.5,243.75,4.5,3.75,22.5,0.22499999999999998
164,Carauari,-4.88161,-66.9086,6,553.0,872.0,4535.0,3355.9,453.5,136.05,294.775,5.442,4.535,27.21,0.2721
165,Tabatinga,-21.7239,-48.6896,148,3835.0,6792.0,127733.0,94522.42,12773.300000000001,3831.99,8302.645,153.2796,127.733,766.398,7.6639800000000005
166,Tabatinga,-4.2416,-69.9383,148,1362.0,3693.0,127733.0,94522.42,12773.300000000001,3831.99,8302.645,153.2796,127.733,766.398,7.6639800000000005
167,Boca do Acre,-8.74232,-67.3919,11,1144.0,1804.0,6645.0,4917.3,664.5,199.35,431.925,7.973999999999999,6.6450000000000005,39.87,0.3987
168,Eirunepé,-6.65677,-69.8662,12,1288.0,2499.0,13800.0,10212.0,1380.0,414.0,897.0,16.56,13.8,82.8,0.8280000000000001
169,Caapiranga,-3.31537,-61.2206,6,1447.0,2969.0,2790.0,2064.6,279.0,83.7,181.35000000000002,3.348,2.7900000000000005,16.74,0.1674
170,Guajará,-7.53797,-72.5907,1,353.0,615.0,1110.0,821.4,111.0,33.3,72.15,1.3319999999999999,1.11,6.66,0.0666
171,Manaquiri,-3.44078,-60.4612,2,266.0,403.0,685.0,506.9,68.5,20.549999999999997,44.525000000000006,0.822,0.6849999999999999,4.11,0.041100000000000005
172,Ipixuna,-7.04791,-71.6934,2,807.0,1340.0,630.0,466.20000000000005,63.0,18.9,40.95,0.756,0.63,3.7800000000000002,0.0378
173,Anori,-3.74603,-61.6575,5,36845.0,137534.0,1485.0,1098.9,148.5,44.55,96.525,1.7819999999999998,1.485,8.91,0.0891
174,Itapiranga,-2.74081,-58.0293,485,889.0,1497.0,357950.0,264883.0,35795.0,10738.5,23266.75,429.53999999999996,357.95,2147.7,21.477
175,Itapiranga,-27.1659,-53.7166,485,1652.0,2940.0,357950.0,264883.0,35795.0,10738.5,23266.75,429.53999999999996,357.95,2147.7,21.477
176,Silves,-2.81748,-58.248,1,773.0,1198.0,280.0,207.2,28.0,8.4,18.2,0.33599999999999997,0.28,1.68,0.0168
177,Tapauá,-5.62085,-63.1808,2,6554.0,12164.0,2415.0,1787.1000000000001,241.5,72.44999999999999,156.97500000000002,2.8979999999999997,2.415,14.49,0.1449
178,Careiro da Várzea,-3.314,-59.5557,2,2478.0,5964.0,945.0,699.3,94.5,28.35,61.425,1.134,0.9450000000000001,5.67,0.0567
179,Barreirinha,-2.79886,-57.0679,3,5967.0,11043.0,6335.0,4687.900000000001,633.5,190.04999999999998,411.77500000000003,7.601999999999999,6.335,38.01,0.3801
180,Fonte Boa,-2.52342,-66.0942,1,555.0,1016.0,3675.0,2719.5,367.5,110.25,238.875,4.409999999999999,3.6750000000000003,22.05,0.2205
181,Uarini,-2.99609,-65.1133,1,8749.0,25386.0,980.0,725.2,98.0,29.4,63.7,1.176,0.98,5.88,0.0588
182,Beruri,-3.89874,-61.3616,1,493.0,1297.0,735.0,543.9,73.5,22.05,47.775,0.8819999999999999,0.735,4.41,0.0441
183,Maués,-3.39289,-57.7067,4,6504.0,12507.0,2730.0,2020.1999999999998,273.0,81.9,177.45,3.276,2.73,16.38,0.1638
184,Envira,-7.43789,-70.0281,1,22870.0,70000.0,1015.0,751.1,101.5,30.45,65.97500000000001,1.218,1.0150000000000001,6.09,0.0609
185,Tefé,-3.36822,-64.7193,6,428.0,772.0,3045.0,2253.3,304.5,91.35,197.925,3.654,3.045,18.27,0.1827
186,Autazes,-3.58574,-59.1256,2,461.0,753.0,1610.0,1191.4,161.0,48.3,104.65,1.932,1.61,9.66,0.0966
187,Japurá,-23.4693,-52.5557,318,3792.0,6218.0,184465.0,136504.1,18446.5,5533.95,11990.225,221.35799999999998,184.465,1106.79,11.0679
188,Japurá,-1.88237,-66.9291,318,1418.0,2244.0,184465.0,136504.1,18446.5,5533.95,11990.225,221.35799999999998,184.465,1106.79,11.0679
189,Itamarati,-6.43852,-68.2437,1,1424.0,3318.0,315.0,233.1,31.5,9.45,20.475,0.37799999999999995,0.315,1.8900000000000001,0.0189
190,Barcelos,-0.983373,-62.9311,2,614.0,1149.0,1260.0,932.4,126.0,37.8,81.9,1.5119999999999998,1.26,7.5600000000000005,0.0756
191,Macapá,0.034934,-51.0694,2553,1049.0,1801.0,2197266.0,1625976.84,219726.6,65917.98,142822.29,2636.7192,2197.266,13183.596,131.83596
192,Tartarugalzinho,1.50652,-50.9087,7,910.0,1645.0,6846.0,5066.04,684.6,205.38,444.99,8.2152,6.846,41.076,0.41076
193,Porto Grande,0.71243,-51.4155,10,393.0,1022.0,18185.0,13456.9,1818.5,545.55,1182.025,21.822,18.185,109.11,1.0911
194,Amapá,2.05267,-50.7957,4,2633.0,7363.0,1776.0,1314.24,177.60000000000002,53.28,115.44,2.1311999999999998,1.776,10.656,0.10656
195,Ferreira Gomes,0.857256,-51.1795,10,8719.0,25568.0,6959.0,5149.66,695.9000000000001,208.76999999999998,452.33500000000004,8.3508,6.959,41.754000000000005,0.41754
196,Vitória do Jari,-0.938,-52.424,5,241.0,405.0,4710.0,3485.4,471.0,141.29999999999998,306.15000000000003,5.651999999999999,4.710000000000001,28.259999999999998,0.2826
197,Laranjal do Jari,-0.804911,-52.453,83,2956.0,5101.0,63254.0,46807.96,6325.400000000001,1897.62,4111.51,75.9048,63.254,379.524,3.79524
198,Santana,-12.9792,-44.0506,567,59.0,128.0,329674.0,243958.76,32967.4,9890.22,21428.81,395.6088,329.67400000000004,1978.044,19.78044
199,Santana,-0.045434,-51.1729,567,940.0,1449.0,329674.0,243958.76,32967.4,9890.22,21428.81,395.6088,329.67400000000004,1978.044,19.78044
200,Pedra Branca do Amapari,0.777424,-51.9503,2,492.0,1050.0,2995.0,2216.3,299.5,89.85,194.675,3.5939999999999994,2.9949999999999997,17.970000000000002,0.17970000000000003
201,Mazagão,-0.11336,-51.2891,14,2710.0,6319.0,6185.0,4576.9,618.5,185.54999999999998,402.02500000000003,7.421999999999999,6.1850000000000005,37.11,0.3711
202,Oiapoque,3.84074,-51.8331,6,123.0,389.0,5355.0,3962.7000000000003,535.5,160.65,348.075,6.425999999999999,5.355,32.13,0.32130000000000003
203,Itaubal,0.602185,-50.6996,1,724.0,1148.0,490.0,362.6,49.0,14.7,31.85,0.588,0.49,2.94,0.0294
204,Calçoene,2.50475,-50.9512,2,29.0,44.0,1015.0,751.0999999999999,101.5,30.450000000000003,65.975,1.218,1.0150000000000001,6.09,0.060899999999999996
205,Ilhéus,-14.793,-39.046,1371,3829.0,7448.0,742624.0,549541.76,74262.4,22278.719999999998,48270.560000000005,891.1487999999999,742.624,4455.744,44.55744
206,São Desidério,-12.3572,-44.9769,267,440.0,700.0,319298.0,236280.52,31929.8,9578.94,20754.37,383.15759999999995,319.298,1915.788,19.15788
207,Eunápolis,-16.3715,-39.5821,1209,348.0,542.0,767387.0,567866.38,76738.7,23021.61,49880.155,920.8643999999999,767.3870000000001,4604.322,46.04322
208,Mata de São João,-12.5307,-38.3009,984,234.0,406.0,772300.0,571502.0,77230.0,23169.0,50199.5,926.7599999999999,772.3000000000001,4633.8,46.338
209,Vitória da Conquista,-14.8615,-40.8442,3622,157.0,341.0,2049679.0,1516762.46,204967.9,61490.369999999995,133229.135,2459.6148,2049.679,12298.074,122.98074
210,Lauro de Freitas,-12.8978,-38.321,5010,259.0,608.0,2535108.0,1875979.92,253510.80000000002,76053.23999999999,164782.02000000002,3042.1295999999998,2535.108,15210.648000000001,152.10648
211,Paulo Afonso,-9.3983,-38.2216,2339,3269.0,6887.0,1113290.0,823834.6,111329.0,33398.7,72363.85,1335.9479999999999,1113.29,6679.74,66.7974
212,Catu,-12.3513,-38.3791,324,1756.0,4291.0,170939.0,126494.85999999999,17093.9,5128.17,11111.035,205.12679999999997,170.939,1025.634,10.25634
213,Porto Seguro,-16.4435,-39.0643,2249,256.0,550.0,1670389.0,1236087.8599999999,167038.9,50111.67,108575.285,2004.4668,1670.3890000000001,10022.334,100.22334000000001
214,Camaçari,-12.6996,-38.3263,6053,2483.0,4507.0,3445324.0,2549539.76,344532.4,103359.72,223946.06,4134.3888,3445.324,20671.944,206.71944000000002
215,Santo Antônio de Jesus,-12.9614,-39.2584,1281,613.0,1036.0,685982.0,507626.68,68598.2,20579.46,44588.83,823.1783999999999,685.982,4115.892,41.15892
216,Itapebi,-15.9551,-39.5329,32,328.0,500.0,20914.0,15476.359999999999,2091.4,627.42,1359.41,25.096799999999998,20.914,125.48400000000001,1.25484
217,Uruçuca,-14.5963,-39.2851,98,9691.0,18598.0,64998.0,48098.52,6499.8,1949.9399999999998,4224.87,77.99759999999999,64.998,389.988,3.89988
218,Livramento de Nossa Senhora,-13.6369,-41.8432,1052,83.0,159.0,357827.0,264791.98,35782.700000000004,10734.81,23258.755,429.39239999999995,357.827,2146.962,21.46962
219,Salvador,-12.9718,-38.5011,8202,54630.0,130516.0,5921810.0,4382139.4,592181.0,177654.3,384917.65,7106.172,5921.81,35530.86,355.3086
220,Itabuna,-14.7876,-39.2781,1290,348.0,713.0,636431.0,470958.94,63643.1,19092.93,41368.015,763.7171999999999,636.431,3818.5860000000002,38.18586
221,Irecê,-11.3033,-41.8535,1067,4931.0,9545.0,772118.0,571367.32,77211.8,23163.54,50187.67,926.5415999999999,772.118,4632.7080000000005,46.32708
222,Jaguarari,-10.2569,-40.1999,231,1259.0,3294.0,91064.0,67387.36,9106.4,2731.92,5919.16,109.2768,91.06400000000001,546.384,5.46384
223,Juazeiro,-9.41622,-40.5033,4015,53714.0,184830.0,2139462.0,1583201.88,213946.2,64183.86,139065.03,2567.3543999999997,2139.462,12836.772,128.36772
224,Luís Eduardo Magalhães,-12.0956,-45.7866,2097,1130.0,3171.0,1565516.0,1158481.84,156551.6,46965.479999999996,101758.54000000001,1878.6191999999999,1565.516,9393.096,93.93096
225,Barreiras,-12.1439,-44.9968,4476,1304.0,2010.0,2695090.0,1994366.6,269509.0,80852.7,175180.85,3234.1079999999997,2695.09,16170.54,161.7054
226,Valença,-13.3669,-39.073,924,10085.0,19699.0,598323.0,442759.02,59832.3,17949.69,38890.995,717.9875999999999,598.323,3589.938,35.89938
227,Valença,-22.2445,-43.7129,924,2082.0,4037.0,598323.0,442759.02,59832.3,17949.69,38890.995,717.9875999999999,598.323,3589.938,35.89938
228,Simões Filho,-12.7866,-38.4029,361,482.0,938.0,325963.0,241212.62,32596.3,9778.89,21187.595,391.15559999999994,325.963,1955.778,19.55778
229,Feira de Santana,-12.2664,-38.9663,6137,2213.0,5176.0,3390910.0,2509273.4,339091.0,101727.3,220409.15,4069.0919999999996,3390.91,20345.46,203.4546
230,Vera Cruz,-6.04399,-35.428,993,651.0,1138.0,584294.0,432377.56,58429.4,17528.82,37979.11,701.1528,584.294,3505.764,35.05764
231,Vera Cruz,-12.9568,-38.6153,993,78.0,125.0,584294.0,432377.56,58429.4,17528.82,37979.11,701.1528,584.294,3505.764,35.05764
232,Vera Cruz,-29.7184,-52.5152,993,648.0,1506.0,584294.0,432377.56,58429.4,17528.82,37979.11,701.1528,584.294,3505.764,35.05764
233,Vera Cruz,-22.2183,-49.8207,993,8122.0,23195.0,584294.0,432377.56,58429.4,17528.82,37979.11,701.1528,584.294,3505.764,35.05764
234,Amargosa,-13.0215,-39.602,253,289.0,555.0,161606.0,119588.44,16160.6,4848.18,10504.39,193.92719999999997,161.606,969.6360000000001,9.69636
235,Mucuri,-18.0754,-39.5565,408,398.0,664.0,211852.0,156770.48,21185.2,6355.5599999999995,13770.380000000001,254.2224,211.852,1271.112,12.711120000000001
236,Ribeira do Pombal,-10.8373,-38.5382,699,294.0,500.0,370359.0,274065.66,37035.9,11110.77,24073.335,444.4308,370.359,2222.154,22.22154
237,Guanambi,-14.2231,-42.7799,3129,21505.0,53028.0,1655144.0,1224806.56,165514.4,49654.32,107584.36,1986.1727999999998,1655.144,9930.864,99.30864
238,Maraú,-14.1035,-39.0137,161,725.0,1256.0,131898.0,97604.52,13189.800000000001,3956.94,8573.37,158.27759999999998,131.898,791.388,7.91388
239,Igaporã,-13.774,-42.7155,145,24.0,68.0,54426.0,40275.24,5442.6,1632.78,3537.69,65.3112,54.426,326.556,3.2655600000000002
240,Crisópolis,-11.5059,-38.1515,40,381.0,587.0,22154.0,16393.96,2215.4,664.62,1440.01,26.584799999999998,22.154,132.924,1.32924
241,Entre Rios,-11.9392,-38.0871,283,11035.0,21169.0,161738.0,119686.12,16173.8,4852.139999999999,10512.970000000001,194.08559999999997,161.738,970.428,9.70428
242,Entre Rios,-26.7225,-52.5585,283,37226.0,111448.0,161738.0,119686.12,16173.8,4852.139999999999,10512.970000000001,194.08559999999997,161.738,970.428,9.70428
243,Brumado,-14.2021,-41.6696,1754,2207.0,5510.0,947770.0,701349.8,94777.0,28433.1,61605.05,1137.3239999999998,947.77,5686.62,56.8662
244,Nova Soure,-11.2329,-38.4871,117,70944.0,156553.0,127862.0,94617.88,12786.2,3835.86,8311.03,153.43439999999998,127.86200000000001,767.172,7.6717200000000005
245,Nova Viçosa,-17.8926,-39.3743,337,8414.0,19829.0,194624.0,144021.76,19462.4,5838.72,12650.56,233.54879999999997,194.624,1167.744,11.67744
246,Teixeira de Freitas,-17.5399,-39.74,1773,950.0,1733.0,863512.0,638998.88,86351.2,25905.36,56128.28,1036.2143999999998,863.5120000000001,5181.072,51.81072
247,Itaberaba,-12.5242,-40.3059,824,1073.0,1731.0,352108.0,260559.92,35210.8,10563.24,22887.02,422.52959999999996,352.108,2112.648,21.12648
248,Serrinha,-6.28181,-35.5,680,39.0,80.0,369252.0,273246.48,36925.2,11077.56,24001.38,443.1024,369.252,2215.512,22.15512
249,Serrinha,-11.6584,-39.01,680,1256.0,2161.0,369252.0,273246.48,36925.2,11077.56,24001.38,443.1024,369.252,2215.512,22.15512
250,Nazaré,-13.0235,-39.0108,117,11661.0,20797.0,76299.0,56461.26,7629.9,2288.97,4959.435,91.55879999999999,76.299,457.794,4.57794
251,Nazaré,-6.37496,-47.6643,117,2568.0,4533.0,76299.0,56461.26,7629.9,2288.97,4959.435,91.55879999999999,76.299,457.794,4.57794
252,Alagoinhas,-12.1335,-38.4208,1180,2410.0,4715.0,738041.0,546150.34,73804.1,22141.23,47972.665,885.6492,738.041,4428.246,44.28246
253,Piritiba,-11.73,-40.5587,64,188.0,285.0,37234.0,27553.16,3723.4,1117.02,2420.21,44.6808,37.234,223.404,2.2340400000000002
254,Bom Jesus da Serra,-14.3663,-40.5126,14,480.0,1051.0,5145.0,3807.3,514.5,154.35,334.425,6.1739999999999995,5.145,30.87,0.30870000000000003
255,Poções,-14.5234,-40.3634,300,720.0,1304.0,134581.0,99589.94,13458.1,4037.43,8747.765000000001,161.4972,134.581,807.486,8.074860000000001
256,Santo Estêvão,-12.428,-39.2505,344,131.0,203.0,152880.0,113131.2,15288.0,4586.4,9937.2,183.456,152.88,917.28,9.1728
257,Sento Sé,-9.74138,-41.8786,174,754.0,1116.0,97808.0,72377.92,9780.8,2934.24,6357.52,117.36959999999999,97.808,586.848,5.86848
258,Barrocas,-11.5272,-39.0776,90,1480.0,2844.0,38731.0,28660.94,3873.1,1161.93,2517.515,46.477199999999996,38.731,232.386,2.32386
259,Jequié,-13.8509,-40.0877,2139,33131.0,67816.0,949984.0,702988.16,94998.40000000001,28499.52,61748.96,1139.9807999999998,949.984,5699.904,56.99904
260,Amélia Rodrigues,-12.3914,-38.7563,71,3751.0,6988.0,52384.0,38764.16,5238.4,1571.52,3404.96,62.8608,52.384,314.304,3.14304
261,Botuporã,-13.3772,-42.5163,97,1506.0,2404.0,35660.0,26388.4,3566.0,1069.8,2317.9,42.791999999999994,35.660000000000004,213.96,2.1396
262,Ubatã,-14.2063,-39.5207,102,42755.0,83868.0,67580.0,50009.2,6758.0,2027.3999999999999,4392.7,81.09599999999999,67.58,405.48,4.0548
263,Itacaré,-14.2784,-38.9959,112,2461.0,7481.0,65538.0,48498.12,6553.8,1966.1399999999999,4259.97,78.6456,65.538,393.228,3.93228
264,Antônio Cardoso,-12.4335,-39.1176,19,3941.0,6609.0,15737.0,11645.38,1573.7,472.10999999999996,1022.9050000000001,18.8844,15.737,94.422,0.9442200000000001
265,Ituberá,-13.7249,-39.1481,62,355.0,622.0,33220.0,24582.8,3322.0,996.6,2159.3,39.864,33.22,199.32000000000002,1.9932
266,Pau Brasil,-15.4572,-39.6458,32,872.0,1502.0,14121.0,10449.539999999999,1412.1,423.63,917.865,16.945199999999996,14.121,84.726,0.84726
267,São Félix do Coribe,-13.4019,-44.1837,170,568.0,965.0,208897.0,154583.78,20889.7,6266.91,13578.305,250.67639999999997,208.897,1253.382,12.53382
268,Camacan,-15.4142,-39.4919,107,3648.0,5408.0,59608.0,44109.92,5960.8,1788.24,3874.52,71.52959999999999,59.608,357.648,3.57648
269,Ipiaú,-14.1226,-39.7353,371,966.0,1519.0,210258.0,155590.91999999998,21025.8,6307.74,13666.77,252.3096,210.258,1261.548,12.61548
270,Guaratinga,-16.5833,-39.7847,84,85.0,165.0,34539.0,25558.86,3453.9,1036.17,2245.035,41.446799999999996,34.539,207.234,2.07234
271,Curaçá,-8.98458,-39.8997,132,16.0,25.0,65645.0,48577.3,6564.5,1969.35,4266.925,78.774,65.645,393.87,3.9387
272,Itabela,-16.5732,-39.5593,184,31612.0,67478.0,187790.0,138964.6,18779.0,5633.7,12206.35,225.34799999999998,187.79000000000002,1126.74,11.2674
273,Conceição do Coité,-11.56,-39.2808,449,965.0,1570.0,248978.0,184243.72,24897.8,7469.339999999999,16183.570000000002,298.7736,248.978,1493.868,14.93868
274,Laje,-13.1673,-39.4213,96,286.0,643.0,67670.0,50075.8,6767.0,2030.1,4398.55,81.204,67.67,406.02,4.0602
275,Paramirim,-13.4388,-42.2395,268,22654.0,44799.0,109332.0,80905.68,10933.2,3279.96,7106.58,131.1984,109.33200000000001,655.992,6.55992
276,Campo Formoso,-10.5105,-40.32,190,1688.0,3077.0,98806.0,73116.44,9880.6,2964.18,6422.39,118.56719999999999,98.806,592.836,5.92836
277,Euclides da Cunha,-10.5078,-39.0153,298,3222.0,5605.0,189794.0,140447.56,18979.4,5693.82,12336.61,227.75279999999998,189.794,1138.7640000000001,11.38764
278,Una,-15.2791,-39.0765,25,6057.0,12121.0,18912.0,13994.88,1891.2,567.36,1229.28,22.694399999999998,18.912,113.47200000000001,1.13472
279,Correntina,-13.3477,-44.6333,203,356.0,600.0,179335.0,132707.9,17933.5,5380.05,11656.775,215.202,179.335,1076.01,10.7601
280,Senhor do Bonfim,-10.4594,-40.1865,541,344.0,581.0,268302.0,198543.48,26830.2,8049.0599999999995,17439.63,321.96239999999995,268.302,1609.8120000000001,16.09812
281,Presidente Dutra,-11.2923,-41.9843,550,1179.0,3120.0,344582.0,254990.68,34458.2,10337.46,22397.83,413.49839999999995,344.582,2067.492,20.67492
282,Presidente Dutra,-5.2898,-44.495,550,362.0,620.0,344582.0,254990.68,34458.2,10337.46,22397.83,413.49839999999995,344.582,2067.492,20.67492
283,Itamaraju,-17.0378,-39.5386,427,3807.0,8671.0,238249.0,176304.26,23824.9,7147.469999999999,15486.185000000001,285.8988,238.249,1429.494,14.29494
284,Dom Basílio,-13.7565,-41.7677,278,31274.0,143343.0,104646.0,77438.04,10464.6,3139.38,6801.99,125.5752,104.646,627.876,6.27876
285,Caetité,-14.0684,-42.4861,828,14195.0,52174.0,404217.0,299120.58,40421.7,12126.51,26274.105,485.06039999999996,404.217,2425.302,24.25302
286,Tanhaçu,-14.0197,-41.2473,263,438.0,943.0,126920.0,93920.8,12692.0,3807.6,8249.800000000001,152.30399999999997,126.92,761.52,7.6152
287,Boa Nova,-14.3598,-40.2064,37,687.0,1131.0,16864.0,12479.36,1686.4,505.91999999999996,1096.16,20.2368,16.864,101.184,1.01184
288,Teofilândia,-11.4827,-38.9913,97,2981.0,6047.0,38422.0,28432.28,3842.2,1152.6599999999999,2497.4300000000003,46.106399999999994,38.422,230.532,2.30532
289,Cruz das Almas,-12.6675,-39.1008,431,399.0,663.0,239721.0,177393.54,23972.1,7191.63,15581.865,287.66519999999997,239.721,1438.326,14.38326
290,Barra do Choça,-14.8654,-40.5791,244,7404.0,14145.0,166367.0,123111.58,16636.7,4991.01,10813.855,199.64039999999997,166.367,998.202,9.98202
291,Alcobaça,-17.5195,-39.2036,139,15970.0,46865.0,87573.0,64804.02,8757.3,2627.19,5692.245,105.0876,87.57300000000001,525.438,5.25438
292,Xique-Xique,-10.823,-42.7245,460,6479.0,15554.0,197126.0,145873.24,19712.600000000002,5913.78,12813.19,236.55119999999997,197.126,1182.756,11.82756
293,Bom Jesus da Lapa,-13.2506,-43.4108,986,294.0,461.0,625609.0,462950.66,62560.9,18768.27,40664.585,750.7307999999999,625.609,3753.654,37.53654
294,Lençóis,-12.5616,-41.3928,72,3751.0,6749.0,45714.0,33828.36,4571.4,1371.4199999999998,2971.4100000000003,54.85679999999999,45.714,274.284,2.74284
295,São Gabriel,-30.3337,-54.3217,1904,299.0,640.0,1072368.0,793552.32,107236.8,32171.039999999997,69703.92,1286.8416,1072.368,6434.2080000000005,64.34208
296,São Gabriel,-11.2175,-41.8843,1904,136.0,205.0,1072368.0,793552.32,107236.8,32171.039999999997,69703.92,1286.8416,1072.368,6434.2080000000005,64.34208
297,Cairu,-13.4904,-39.0465,67,9116.0,16349.0,37929.0,28067.46,3792.9,1137.87,2465.385,45.514799999999994,37.929,227.574,2.27574
298,Irará,-12.0504,-38.7631,153,101.0,169.0,97716.0,72309.84,9771.6,2931.48,6351.54,117.25919999999999,97.71600000000001,586.296,5.86296
299,Jacobina,-11.1812,-40.5117,620,17620.0,39787.0,275465.0,203844.1,27546.5,8263.949999999999,17905.225000000002,330.558,275.46500000000003,1652.79,16.5279
300,Gandu,-13.7441,-39.4747,184,726.0,1185.0,94054.0,69599.95999999999,9405.4,2821.62,6113.51,112.86479999999999,94.054,564.3240000000001,5.6432400000000005
301,Ibirataia,-14.0643,-39.6459,59,1749.0,3230.0,30895.0,22862.3,3089.5,926.85,2008.1750000000002,37.074,30.895,185.37,1.8537000000000001
302,Pindaí,-14.4921,-42.686,401,209.0,385.0,121952.0,90244.48,12195.2,3658.56,7926.88,146.3424,121.952,731.712,7.31712
303,Muritiba,-12.6329,-38.9921,110,48023.0,134057.0,58364.0,43189.36,5836.400000000001,1750.92,3793.66,70.0368,58.364000000000004,350.184,3.50184
304,Ibotirama,-12.1779,-43.2167,467,533.0,1313.0,303094.0,224289.56,30309.4,9092.82,19701.11,363.71279999999996,303.094,1818.564,18.18564
305,Maragogipe,-12.776,-38.9175,56,64.0,144.0,39238.0,29036.12,3923.8,1177.1399999999999,2550.4700000000003,47.0856,39.238,235.428,2.35428
306,Ubaitaba,-14.303,-39.3222,32,5115.0,18273.0,16170.0,11965.8,1617.0,485.1,1051.05,19.403999999999996,16.17,97.02,0.9702000000000001
307,Caculé,-14.5003,-42.2229,414,1328.0,3450.0,244920.0,181240.8,24492.0,7347.599999999999,15919.800000000001,293.904,244.92000000000002,1469.52,14.6952
308,Muniz Ferreira,-13.0092,-39.1092,24,13362.0,23291.0,12772.0,9451.28,1277.2,383.15999999999997,830.1800000000001,15.326399999999998,12.772,76.632,0.76632
309,Formosa do Rio Preto,-11.0328,-45.193,195,3249.0,8385.0,178364.0,131989.36,17836.4,5350.92,11593.66,214.03679999999997,178.364,1070.184,10.70184
310,Mortugaba,-15.0225,-42.3727,85,1490.0,3491.0,45574.0,33724.76,4557.4,1367.22,2962.31,54.68879999999999,45.574,273.444,2.73444
311,Valente,-11.4062,-39.457,115,260.0,486.0,52060.0,38524.4,5206.0,1561.8,3383.9,62.471999999999994,52.06,312.36,3.1236
312,Buritirama,-10.7171,-43.6302,36,13649.0,27676.0,22114.0,16364.36,2211.4,663.42,1437.41,26.536799999999996,22.114,132.684,1.32684
313,Seabra,-12.4169,-41.7722,170,7028.0,13266.0,96401.0,71336.74,9640.1,2892.0299999999997,6266.0650000000005,115.68119999999999,96.401,578.4060000000001,5.78406
314,Biritinga,-11.6072,-38.8051,48,2056.0,4298.0,24431.0,18078.94,2443.1,732.93,1588.015,29.317199999999996,24.431,146.586,1.46586
315,Itapetinga,-15.2475,-40.2482,572,1159.0,2099.0,248046.0,183554.04,24804.6,7441.38,16122.99,297.6552,248.046,1488.276,14.88276
316,Tanque Novo,-13.5485,-42.4934,134,1566.0,2532.0,68465.0,50664.1,6846.5,2053.95,4450.225,82.15799999999999,68.465,410.79,4.1079
317,Rio de Contas,-13.5852,-41.8048,156,1714.0,3830.0,73004.0,54022.96,7300.4,2190.12,4745.26,87.6048,73.004,438.024,4.38024
318,Ipupiara,-11.8219,-42.6179,91,4523.0,9979.0,50071.0,37052.54,5007.1,1502.1299999999999,3254.6150000000002,60.08519999999999,50.071,300.426,3.00426
319,Antônio Gonçalves,-10.5767,-40.2785,20,14.0,20.0,15012.0,11108.88,1501.2,450.36,975.78,18.0144,15.012,90.072,0.90072
320,Ichu,-11.7431,-39.1905,22,200.0,330.0,11516.0,8521.84,1151.6,345.48,748.54,13.819199999999999,11.516,69.096,0.69096
321,Santa Teresinha,-12.7697,-39.5215,95,68.0,133.0,60330.0,44644.2,6033.0,1809.8999999999999,3921.4500000000003,72.39599999999999,60.33,361.98,3.6198
322,Santa Teresinha,-7.07964,-37.4435,95,447.0,690.0,60330.0,44644.2,6033.0,1809.8999999999999,3921.4500000000003,72.39599999999999,60.33,361.98,3.6198
323,Pojuca,-12.4303,-38.3374,239,3957.0,7369.0,230254.0,170387.96,23025.4,6907.619999999999,14966.510000000002,276.3048,230.254,1381.5240000000001,13.815240000000001
324,Araças,-12.22,-38.2027,16,570.0,945.0,11231.0,8310.94,1123.1,336.93,730.015,13.477199999999998,11.231,67.386,0.67386
325,Carinhanha,-14.2985,-43.7724,206,731.0,1107.0,83780.0,61997.2,8378.0,2513.4,5445.7,100.53599999999999,83.78,502.68,5.0268
326,Camamu,-13.9398,-39.1071,47,323.0,893.0,50836.0,37618.64,5083.6,1525.08,3304.34,61.00319999999999,50.836,305.016,3.05016
327,Barra,-11.0859,-43.1459,246,168.0,400.0,101637.0,75211.38,10163.7,3049.1099999999997,6606.405000000001,121.96439999999998,101.637,609.822,6.09822
328,Capim Grosso,-11.3797,-40.0089,122,4497.0,8465.0,92381.0,68361.94,9238.1,2771.43,6004.765,110.85719999999999,92.381,554.2860000000001,5.54286
329,Cachoeira,-12.5994,-38.9587,88,3544.0,6600.0,61559.0,45553.659999999996,6155.9,1846.77,4001.335,73.87079999999999,61.559000000000005,369.354,3.69354
330,Macaúbas,-13.0186,-42.6945,137,25391.0,46408.0,65121.0,48189.54,6512.1,1953.6299999999999,4232.865,78.14519999999999,65.121,390.726,3.90726
331,Jaguaripe,-13.1109,-38.8939,63,1052.0,1748.0,31644.0,23416.56,3164.4,949.3199999999999,2056.86,37.9728,31.644000000000002,189.864,1.89864
332,Morro do Chapéu,-11.5488,-41.1565,119,457.0,1213.0,67611.0,50032.14,6761.1,2028.33,4394.715,81.13319999999999,67.611,405.666,4.05666
333,Barro Preto,-14.7948,-39.476,5,5599.0,11760.0,1980.0,1465.1999999999998,198.0,59.400000000000006,128.7,2.3759999999999994,1.98,11.879999999999999,0.1188
334,Candeias,-12.6716,-38.5472,388,8284.0,17572.0,359888.0,266317.12,35988.8,10796.64,23392.72,431.8656,359.88800000000003,2159.328,21.59328
335,Candeias,-20.7692,-45.2765,388,248.0,450.0,359888.0,266317.12,35988.8,10796.64,23392.72,431.8656,359.88800000000003,2159.328,21.59328
336,Manoel Vitorino,-14.1476,-40.2399,85,305.0,547.0,45682.0,33804.68,4568.2,1370.46,2969.33,54.8184,45.682,274.092,2.74092
337,Baianópolis,-12.3016,-44.5388,105,169.0,512.0,48085.0,35582.9,4808.5,1442.55,3125.525,57.702,48.085,288.51,2.8851
338,Itaguaçu da Bahia,-11.0147,-42.3997,70,138.0,220.0,36048.0,26675.52,3604.8,1081.44,2343.12,43.2576,36.048,216.288,2.16288
339,Jussiape,-13.5155,-41.5882,69,2705.0,6027.0,40456.0,29937.44,4045.6,1213.6799999999998,2629.6400000000003,48.5472,40.456,242.73600000000002,2.42736
340,Sobradinho,-9.45024,-40.8145,979,904.0,1809.0,419917.0,310738.58,41991.7,12597.51,27294.605,503.90039999999993,419.91700000000003,2519.502,25.19502
341,Sobradinho,-29.4194,-53.0326,979,2530.0,4783.0,419917.0,310738.58,41991.7,12597.51,27294.605,503.90039999999993,419.91700000000003,2519.502,25.19502
342,Elísio Medrado,-12.9417,-39.5191,54,569.0,1378.0,40919.0,30280.06,4091.9,1227.57,2659.735,49.102799999999995,40.919000000000004,245.514,2.45514
343,Remanso,-9.61944,-42.0848,388,9877.0,19754.0,124645.0,92237.3,12464.5,3739.35,8101.925,149.57399999999998,124.645,747.87,7.4787
344,Rio do Pires,-13.1185,-42.2902,132,431.0,942.0,42861.0,31717.14,4286.1,1285.83,2785.965,51.4332,42.861000000000004,257.166,2.57166
345,Santa Inês,-13.2793,-39.814,836,2175.0,4575.0,589847.0,436486.78,58984.7,17695.41,38340.055,707.8163999999999,589.847,3539.082,35.39082
346,Santa Inês,-22.6376,-51.9024,836,4081.0,8400.0,589847.0,436486.78,58984.7,17695.41,38340.055,707.8163999999999,589.847,3539.082,35.39082
347,Santa Inês,-7.621,-38.554,836,1751.0,3627.0,589847.0,436486.78,58984.7,17695.41,38340.055,707.8163999999999,589.847,3539.082,35.39082
348,Santa Inês,-3.65112,-45.3774,836,6078.0,23451.0,589847.0,436486.78,58984.7,17695.41,38340.055,707.8163999999999,589.847,3539.082,35.39082
349,Serra do Ramalho,-13.5659,-43.5929,228,2893.0,7086.0,93623.0,69281.02,9362.3,2808.69,6085.495,112.34759999999999,93.623,561.738,5.61738
350,Mutuípe,-13.2284,-39.5044,94,4636.0,15337.0,76505.0,56613.7,7650.5,2295.15,4972.825,91.806,76.505,459.03000000000003,4.5903
351,Capela do Alto Alegre,-11.6658,-39.8349,58,660.0,1213.0,24843.0,18383.82,2484.3,745.29,1614.795,29.8116,24.843,149.058,1.49058
352,Riacho de Santana,-6.25139,-38.3116,326,3736.0,6607.0,121819.0,90146.06,12181.9,3654.5699999999997,7918.235000000001,146.1828,121.819,730.914,7.30914
353,Riacho de Santana,-13.6059,-42.9397,326,649.0,1632.0,121819.0,90146.06,12181.9,3654.5699999999997,7918.235000000001,146.1828,121.819,730.914,7.30914
354,Várzea Nova,-11.2557,-40.9432,53,600.0,1115.0,26592.0,19678.08,2659.2,797.76,1728.48,31.910399999999996,26.592,159.552,1.59552
355,Brotas de Macaúbas,-11.9915,-42.6326,302,896.0,1799.0,134964.0,99873.36,13496.4,4048.9199999999996,8772.66,161.9568,134.964,809.784,8.09784
356,Iaçu,-12.7666,-40.2056,105,5226.0,8881.0,66477.0,49192.98,6647.7,1994.31,4321.005,79.77239999999999,66.477,398.862,3.98862
357,Paripiranga,-10.6859,-37.8626,98,15266.0,31094.0,54438.0,40284.12,5443.8,1633.1399999999999,3538.4700000000003,65.3256,54.438,326.628,3.26628
358,Paratinga,-12.687,-43.1798,146,112.0,163.0,73792.0,54606.08,7379.2,2213.7599999999998,4796.4800000000005,88.5504,73.792,442.752,4.42752
359,Conceição da Feira,-12.5078,-38.9978,78,26874.0,52169.0,39808.0,29457.92,3980.8,1194.24,2587.52,47.7696,39.808,238.848,2.38848
360,Queimadas,-7.35029,-35.9031,266,228.0,391.0,565634.0,418569.16,56563.4,16969.02,36766.21,678.7607999999999,565.634,3393.804,33.93804
361,Queimadas,-10.9736,-39.6293,266,132.0,221.0,565634.0,418569.16,56563.4,16969.02,36766.21,678.7607999999999,565.634,3393.804,33.93804
362,Inhambupe,-11.781,-38.355,107,4846.0,8354.0,85953.0,63605.22,8595.3,2578.59,5586.945000000001,103.14359999999999,85.953,515.718,5.15718
363,Riachão do Jacuípe,-11.8067,-39.3818,283,9178.0,17131.0,147427.0,109095.98,14742.7,4422.8099999999995,9582.755000000001,176.9124,147.427,884.562,8.84562
364,Igrapiúna,-13.8295,-39.1361,8,4312.0,7403.0,2732.0,2021.68,273.2,81.96,177.58,3.2783999999999995,2.732,16.392,0.16392
365,Candiba,-14.4097,-42.8667,320,405.0,1117.0,141543.0,104741.81999999999,14154.3,4246.29,9200.295,169.8516,141.543,849.258,8.49258
366,Conceição do Jacuípe,-12.3268,-38.7684,184,839.0,1900.0,103389.0,76507.86,10338.9,3101.67,6720.285,124.06679999999999,103.389,620.3340000000001,6.20334
367,Tucano,-10.9584,-38.7894,555,18408.0,58361.0,240715.0,178129.1,24071.5,7221.45,15646.475,288.858,240.715,1444.29,14.4429
368,Potiraguá,-15.5943,-39.8638,25,1895.0,3383.0,12053.0,8919.22,1205.3,361.59,783.445,14.4636,12.053,72.318,0.72318
369,Serra Dourada,-12.759,-43.9504,85,3105.0,6325.0,40294.0,29817.56,4029.4,1208.82,2619.11,48.352799999999995,40.294000000000004,241.764,2.41764
370,Ibicoara,-13.4059,-41.284,66,95.0,156.0,41268.0,30538.32,4126.8,1238.04,2682.42,49.52159999999999,41.268,247.608,2.47608
371,Rio Real,-11.4814,-37.9332,95,3170.0,5847.0,38780.0,28697.2,3878.0,1163.3999999999999,2520.7000000000003,46.535999999999994,38.78,232.68,2.3268
372,São Sebastião do Passé,-12.5123,-38.4905,129,1053.0,2184.0,88080.0,65179.2,8808.0,2642.4,5725.2,105.69599999999998,88.08,528.48,5.2848
373,Santaluz,-11.2508,-39.375,80,150.0,230.0,38093.0,28188.82,3809.3,1142.79,2476.045,45.7116,38.093,228.558,2.28558
374,Glória,-9.34382,-38.2544,120,4553.0,10991.0,82022.0,60696.28,8202.2,2460.66,5331.43,98.42639999999999,82.022,492.132,4.92132
375,Canarana,-11.6858,-41.7677,905,397.0,807.0,839677.0,621360.98,83967.7,25190.309999999998,54579.005000000005,1007.6123999999999,839.677,5038.062,50.38062
376,Canarana,-13.5515,-52.2705,905,1518.0,3431.0,839677.0,621360.98,83967.7,25190.309999999998,54579.005000000005,1007.6123999999999,839.677,5038.062,50.38062
377,Canavieiras,-15.6722,-38.9536,130,849.0,1473.0,70598.0,52242.52,7059.8,2117.94,4588.87,84.71759999999999,70.598,423.588,4.23588
378,Barro Alto,-11.7605,-41.9054,144,308.0,583.0,72540.0,53679.6,7254.0,2176.2,4715.1,87.04799999999999,72.54,435.24,4.3524
379,Barro Alto,-14.9658,-48.9086,144,32.0,46.0,72540.0,53679.6,7254.0,2176.2,4715.1,87.04799999999999,72.54,435.24,4.3524
380,Uauá,-9.83325,-39.4794,221,1005.0,1667.0,89546.0,66264.04,8954.6,2686.38,5820.49,107.45519999999999,89.546,537.276,5.37276
381,Licínio de Almeida,-14.6842,-42.5095,249,7562.0,22633.0,91238.0,67516.12,9123.800000000001,2737.14,5930.47,109.48559999999999,91.238,547.428,5.47428
382,Angical,-12.0063,-44.7003,129,593.0,1023.0,55271.0,40900.54,5527.1,1658.1299999999999,3592.6150000000002,66.3252,55.271,331.626,3.31626
383,Monte Santo,-10.4374,-39.3321,98,97.0,150.0,47117.0,34866.58,4711.7,1413.51,3062.605,56.5404,47.117,282.702,2.82702
384,Aramari,-12.0884,-38.4969,28,133.0,209.0,19768.0,14628.32,1976.8,593.04,1284.92,23.7216,19.768,118.608,1.18608
385,Jaguaquara,-13.5248,-39.964,122,326.0,682.0,89900.0,66526.0,8990.0,2697.0,5843.5,107.88,89.9,539.4,5.394
386,Rio do Antônio,-14.4071,-42.0721,118,281.0,528.0,46775.0,34613.5,4677.5,1403.25,3040.375,56.129999999999995,46.775,280.65000000000003,2.8065
387,São José do Jacuípe,-11.4137,-39.8669,26,865.0,1750.0,11693.0,8652.82,1169.3,350.79,760.0450000000001,14.0316,11.693,70.158,0.70158
388,Prado,-17.3364,-39.2227,420,11894.0,32064.0,275863.0,204138.62,27586.3,8275.89,17931.095,331.0356,275.863,1655.178,16.55178
389,Campo Alegre de Lourdes,-9.52221,-43.0126,86,10467.0,28392.0,52170.0,38605.8,5217.0,1565.1,3391.05,62.60399999999999,52.17,313.02,3.1302000000000003
390,Uibaí,-11.3394,-42.1354,58,1573.0,4475.0,28000.0,20720.0,2800.0,840.0,1820.0,33.599999999999994,28.0,168.0,1.68
391,Pintadas,-11.8117,-39.9009,32,798.0,1343.0,14650.0,10841.0,1465.0,439.5,952.25,17.58,14.65,87.9,0.879
392,Ibipitanga,-12.8804,-42.4856,203,14566.0,29850.0,74921.0,55441.54,7492.1,2247.63,4869.865,89.9052,74.921,449.526,4.49526
393,João Dourado,-11.3486,-41.6548,106,536.0,829.0,98070.0,72571.8,9807.0,2942.1,6374.55,117.68399999999998,98.07000000000001,588.42,5.8842
394,Urandi,-14.7678,-42.6498,183,74.0,112.0,73694.0,54533.56,7369.4,2210.82,4790.110000000001,88.4328,73.694,442.164,4.42164
395,Condeúba,-14.9022,-41.9718,157,29.0,45.0,92528.0,68470.72,9252.8,2775.8399999999997,6014.320000000001,111.03359999999999,92.528,555.168,5.55168
396,Itapé,-14.8876,-39.4239,49,4404.0,7913.0,37076.0,27436.239999999998,3707.6,1112.28,2409.94,44.4912,37.076,222.45600000000002,2.22456
397,Chorrochó,-8.9695,-39.0979,47,2851.0,5227.0,17186.0,12717.64,1718.6000000000001,515.5799999999999,1117.0900000000001,20.623199999999997,17.186,103.116,1.03116
398,Santa Cruz Cabrália,-16.2825,-39.0295,253,99.0,154.0,148492.0,109884.08,14849.2,4454.76,9651.980000000001,178.19039999999998,148.492,890.952,8.90952
399,Miguel Calmon,-11.4299,-40.6031,167,7905.0,14977.0,72120.0,53368.8,7212.0,2163.6,4687.8,86.544,72.12,432.72,4.3272
400,Retirolândia,-11.4832,-39.4234,84,903.0,1510.0,37506.0,27754.44,3750.6,1125.1799999999998,2437.8900000000003,45.0072,37.506,225.036,2.25036
401,Santa Maria da Vitória,-13.3859,-44.2011,341,448.0,913.0,235428.0,174216.72,23542.8,7062.84,15302.82,282.5136,235.428,1412.568,14.125680000000001
402,Ipirá,-12.1561,-39.7359,221,1883.0,3899.0,138021.0,102135.54,13802.1,4140.63,8971.365,165.62519999999998,138.02100000000002,828.126,8.28126
403,Santo Amaro,-12.5472,-38.7137,209,318.0,511.0,113835.0,84237.9,11383.5,3415.0499999999997,7399.275000000001,136.60199999999998,113.83500000000001,683.01,6.8301
404,Barra da Estiva,-13.6237,-41.3347,200,5932.0,10451.0,97300.0,72002.0,9730.0,2919.0,6324.5,116.75999999999999,97.3,583.8,5.838
405,Oliveira dos Brejinhos,-12.3132,-42.8969,229,391.0,604.0,463363.0,342888.62,46336.3,13900.89,30118.595,556.0356,463.363,2780.178,27.801779999999997
406,Teolândia,-13.5896,-39.484,23,44.0,66.0,12322.0,9118.28,1232.2,369.65999999999997,800.9300000000001,14.786399999999999,12.322,73.932,0.73932
407,São Felipe,-12.8394,-39.0893,69,2408.0,5602.0,28465.0,21064.1,2846.5,853.9499999999999,1850.2250000000001,34.157999999999994,28.465,170.79,1.7079
408,Cipó,-11.1032,-38.5179,100,185.0,284.0,41804.0,30934.96,4180.4,1254.12,2717.26,50.16479999999999,41.804,250.824,2.5082400000000002
409,Itatim,-12.7099,-39.6952,64,351.0,714.0,89726.0,66397.24,8972.6,2691.7799999999997,5832.1900000000005,107.6712,89.726,538.356,5.38356
410,Nova Redenção,-12.815,-41.0748,26,499.0,1277.0,12575.0,9305.5,1257.5,377.25,817.375,15.09,12.575,75.45,0.7545
411,Ibicaraí,-14.8579,-39.5914,121,2595.0,6695.0,52187.0,38618.38,5218.7,1565.61,3392.155,62.624399999999994,52.187000000000005,313.122,3.13122
412,Medeiros Neto,-17.3707,-40.2238,125,604.0,1195.0,84392.0,62450.08,8439.2,2531.7599999999998,5485.4800000000005,101.2704,84.392,506.352,5.0635200000000005
413,Jeremoabo,-10.0685,-38.3471,191,1061.0,2003.0,107098.0,79252.52,10709.800000000001,3212.94,6961.37,128.5176,107.098,642.588,6.42588
414,Iuiú,-14.4054,-43.5595,119,962.0,2223.0,57991.0,42913.34,5799.1,1739.73,3769.415,69.58919999999999,57.991,347.946,3.47946
415,Anagé,-14.6151,-41.1356,122,1480.0,2366.0,73146.0,54128.04,7314.6,2194.38,4754.49,87.7752,73.146,438.87600000000003,4.38876
416,Santa Rita de Cássia,-11.0063,-44.5255,160,24413.0,70530.0,82619.0,61138.06,8261.9,2478.5699999999997,5370.235000000001,99.1428,82.619,495.714,4.95714
417,Salinas da Margarida,-12.873,-38.7562,53,8035.0,15090.0,26545.0,19643.3,2654.5,796.3499999999999,1725.4250000000002,31.853999999999996,26.545,159.27,1.5927
418,Araci,-11.3253,-38.9584,151,999.0,1783.0,56100.0,41514.0,5610.0,1683.0,3646.5,67.32,56.1,336.6,3.366
419,Cansanção,-10.6647,-39.4944,130,326.0,507.0,60676.0,44900.24,6067.6,1820.28,3943.94,72.8112,60.676,364.056,3.6405600000000002
420,Pé de Serra,-11.8313,-39.611,67,2122.0,3614.0,28013.0,20729.62,2801.3,840.39,1820.845,33.6156,28.013,168.078,1.68078
421,Cafarnaum,-11.6914,-41.4688,47,83.0,147.0,30948.0,22901.52,3094.8,928.4399999999999,2011.6200000000001,37.1376,30.948,185.68800000000002,1.85688
422,Caravelas,-17.7268,-39.2597,201,707.0,1315.0,120894.0,89461.56,12089.4,3626.8199999999997,7858.110000000001,145.0728,120.894,725.364,7.25364
423,Novo Horizonte,-26.4442,-52.8281,1238,223.0,513.0,601466.0,445084.84,60146.6,18043.98,39095.29,721.7592,601.466,3608.7960000000003,36.08796
424,Novo Horizonte,-21.4651,-49.2234,1238,12648.0,23681.0,601466.0,445084.84,60146.6,18043.98,39095.29,721.7592,601.466,3608.7960000000003,36.08796
425,Novo Horizonte,-12.8083,-42.1682,1238,474.0,712.0,601466.0,445084.84,60146.6,18043.98,39095.29,721.7592,601.466,3608.7960000000003,36.08796
426,Governador Mangabeira,-12.5994,-39.0412,88,241.0,367.0,61085.0,45202.9,6108.5,1832.55,3970.525,73.30199999999999,61.08500000000001,366.51,3.6651000000000002
427,Pindobaçu,-10.7433,-40.3675,20,358.0,566.0,16812.0,12440.880000000001,1681.2,504.35999999999996,1092.78,20.1744,16.812,100.872,1.00872
428,Caraíbas,-14.7177,-41.2603,96,4348.0,7956.0,37790.0,27964.6,3779.0,1133.7,2456.35,45.348,37.79,226.74,2.2674
429,Sebastião Laranjeiras,-14.571,-42.9434,146,10141.0,20195.0,63684.0,47126.16,6368.4,1910.52,4139.46,76.4208,63.684,382.104,3.82104
430,Belmonte,-26.843,-53.5758,99,8451.0,16746.0,69872.0,51705.28,6987.2,2096.16,4541.68,83.84639999999999,69.872,419.232,4.1923200000000005
431,Belmonte,-15.8608,-38.8758,99,5538.0,18270.0,69872.0,51705.28,6987.2,2096.16,4541.68,83.84639999999999,69.872,419.232,4.1923200000000005
432,São Gonçalo dos Campos,-12.4331,-38.9663,207,2146.0,3904.0,111836.0,82758.64,11183.6,3355.08,7269.34,134.20319999999998,111.836,671.016,6.71016
433,Malhada,-14.3371,-43.7686,119,15336.0,46599.0,59482.0,44016.68,5948.2,1784.46,3866.33,71.3784,59.482,356.892,3.56892
434,Palmas de Monte Alto,-14.2676,-43.1609,287,194.0,326.0,119755.0,88618.7,11975.5,3592.6499999999996,7784.075000000001,143.706,119.75500000000001,718.53,7.1853
435,Itapitanga,-14.4139,-39.5657,11,25.0,36.0,9846.0,7286.04,984.6,295.38,639.99,11.815199999999999,9.846,59.076,0.59076
436,Lapão,-11.3851,-41.8286,166,6141.0,11532.0,99342.0,73513.08,9934.2,2980.2599999999998,6457.2300000000005,119.21039999999999,99.342,596.052,5.96052
437,Presidente Tancredo Neves,-13.4471,-39.4203,63,1794.0,3542.0,44320.0,32796.8,4432.0,1329.6,2880.8,53.184,44.32,265.92,2.6592000000000002
438,Central,-11.1376,-42.1116,62,5424.0,10912.0,25005.0,18503.7,2500.5,750.15,1625.325,30.005999999999997,25.005,150.03,1.5003
439,Pilão Arcado,-10.0051,-42.4936,134,126.0,203.0,48436.0,35842.64,4843.6,1453.08,3148.34,58.1232,48.436,290.616,2.90616
440,Catolândia,-12.31,-44.8648,34,1628.0,3151.0,16715.0,12369.1,1671.5,501.45,1086.4750000000001,20.058,16.715,100.29,1.0029
441,Mulungu do Morro,-11.9648,-41.6374,39,596.0,1470.0,14893.0,11020.82,1489.3,446.79,968.045,17.871599999999997,14.893,89.358,0.89358
442,Itagibá,-14.2782,-39.8449,125,9260.0,21201.0,67563.0,49996.62,6756.3,2026.8899999999999,4391.595,81.0756,67.563,405.378,4.05378
443,Fátima,-10.7603,-48.9076,83,1300.0,2939.0,49105.0,36337.7,4910.5,1473.1499999999999,3191.8250000000003,58.925999999999995,49.105,294.63,2.9463
444,Fátima,-10.616,-38.2239,83,1866.0,3019.0,49105.0,36337.7,4910.5,1473.1499999999999,3191.8250000000003,58.925999999999995,49.105,294.63,2.9463
445,Mairi,-11.7107,-40.1437,53,501.0,821.0,25947.0,19200.78,2594.7,778.41,1686.555,31.1364,25.947,155.682,1.55682
446,Malhada de Pedras,-14.3847,-41.8842,74,328.0,590.0,31411.0,23244.14,3141.1,942.3299999999999,2041.7150000000001,37.6932,31.411,188.466,1.88466
447,Serrolândia,-11.4085,-40.2983,43,159.0,269.0,18256.0,13509.44,1825.6,547.68,1186.64,21.9072,18.256,109.536,1.0953600000000001
448,Casa Nova,-9.16408,-40.974,290,2179.0,3691.0,207281.0,153387.94,20728.1,6218.429999999999,13473.265000000001,248.73719999999997,207.281,1243.686,12.43686
449,Conde,-7.25746,-34.8999,483,6152.0,11050.0,353045.0,261253.3,35304.5,10591.35,22947.925,423.65399999999994,353.045,2118.27,21.1827
450,Conde,-11.8179,-37.6131,483,6791.0,11595.0,353045.0,261253.3,35304.5,10591.35,22947.925,423.65399999999994,353.045,2118.27,21.1827
451,Ibititá,-11.5414,-41.9748,73,7922.0,17119.0,56583.0,41871.42,5658.3,1697.49,3677.895,67.89959999999999,56.583,339.498,3.39498
452,Encruzilhada,-15.5302,-40.9124,51,2.0,5.0,61906.0,45810.44,6190.6,1857.1799999999998,4023.8900000000003,74.2872,61.906000000000006,371.436,3.71436
453,Tabocas do Brejo Velho,-12.7026,-44.0075,68,2788.0,6026.0,17861.0,13217.14,1786.1,535.8299999999999,1160.9650000000001,21.4332,17.861,107.166,1.07166
454,Nordestina,-10.8192,-39.4297,18,6629.0,12221.0,9220.0,6822.8,922.0,276.59999999999997,599.3000000000001,11.064,9.22,55.32,0.5532
455,Filadélfia,-7.33501,-47.4954,85,23242.0,45247.0,59521.0,44045.54,5952.1,1785.6299999999999,3868.8650000000002,71.42519999999999,59.521,357.12600000000003,3.57126
456,Filadélfia,-10.7405,-40.1437,85,809.0,1412.0,59521.0,44045.54,5952.1,1785.6299999999999,3868.8650000000002,71.42519999999999,59.521,357.12600000000003,3.57126
457,Jaborandi,-13.6071,-44.4255,240,786.0,1632.0,107549.0,79586.26,10754.9,3226.47,6990.685,129.0588,107.549,645.294,6.45294
458,Jaborandi,-20.6884,-48.4112,240,1075.0,2201.0,107549.0,79586.26,10754.9,3226.47,6990.685,129.0588,107.549,645.294,6.45294
459,Tremedal,-14.9736,-41.4142,44,141.0,221.0,17894.0,13241.56,1789.4,536.8199999999999,1163.1100000000001,21.4728,17.894,107.364,1.07364
460,Bonito,-8.47163,-35.7292,909,8455.0,14330.0,845495.0,625666.3,84549.5,25364.85,54957.175,1014.5939999999999,845.495,5072.97,50.7297
461,Bonito,-11.9668,-41.2647,909,11328.0,17523.0,845495.0,625666.3,84549.5,25364.85,54957.175,1014.5939999999999,845.495,5072.97,50.7297
462,Bonito,-1.36745,-47.3066,909,2159.0,4393.0,845495.0,625666.3,84549.5,25364.85,54957.175,1014.5939999999999,845.495,5072.97,50.7297
463,Bonito,-21.1261,-56.4836,909,1388.0,2513.0,845495.0,625666.3,84549.5,25364.85,54957.175,1014.5939999999999,845.495,5072.97,50.7297
464,Cícero Dantas,-10.5897,-38.3794,102,183.0,278.0,51908.0,38411.92,5190.8,1557.24,3374.02,62.28959999999999,51.908,311.448,3.11448
465,Heliópolis,-10.6825,-38.2907,16,298.0,695.0,5539.0,4098.86,553.9,166.17,360.035,6.6468,5.539000000000001,33.234,0.33234
466,Nova Fátima,-23.4324,-50.5665,104,7165.0,13799.0,104837.0,77579.38,10483.7,3145.1099999999997,6814.405000000001,125.80439999999999,104.837,629.022,6.29022
467,Nova Fátima,-11.6031,-39.6302,104,3544.0,6889.0,104837.0,77579.38,10483.7,3145.1099999999997,6814.405000000001,125.80439999999999,104.837,629.022,6.29022
468,Marcionílio Souza,-13.0064,-40.5295,23,2132.0,5400.0,19400.0,14356.0,1940.0,582.0,1261.0,23.279999999999998,19.400000000000002,116.4,1.164
469,Iraquara,-12.2429,-41.6155,51,1428.0,2346.0,35031.0,25922.94,3503.1,1050.93,2277.015,42.0372,35.031,210.186,2.1018600000000003
470,São José da Vitória,-15.0787,-39.3437,2,38768.0,110822.0,984.0,728.1600000000001,98.4,29.519999999999996,63.96000000000001,1.1807999999999998,0.984,5.904,0.059039999999999995
471,Barra do Rocha,-14.2,-39.5991,18,107.0,163.0,9314.0,6892.360000000001,931.4,279.42,605.41,11.1768,9.314,55.884,0.55884
472,Itaparica,-12.8932,-38.68,95,125.0,181.0,39150.0,28971.0,3915.0,1174.5,2544.75,46.98,39.15,234.9,2.349
473,Baixa Grande,-11.9519,-40.169,51,7055.0,16245.0,25730.0,19040.2,2573.0,771.9,1672.45,30.875999999999998,25.73,154.38,1.5438
474,Ibipeba,-11.6438,-42.0195,91,449.0,753.0,69730.0,51600.2,6973.0,2091.9,4532.45,83.67599999999999,69.73,418.38,4.1838
475,Rodelas,-8.85021,-38.78,53,34252.0,89319.0,33093.0,24488.82,3309.3,992.79,2151.045,39.7116,33.093,198.558,1.9855800000000001
476,Boquira,-12.8205,-42.7324,131,3089.0,7685.0,49329.0,36503.46,4932.9,1479.87,3206.385,59.194799999999994,49.329,295.974,2.95974
477,Jacaraci,-14.8541,-42.4329,90,1117.0,2682.0,51269.0,37939.06,5126.9,1538.07,3332.485,61.5228,51.269000000000005,307.614,3.07614
478,Belo Campo,-15.0334,-41.2652,81,1229.0,2646.0,61868.0,45782.32,6186.8,1856.04,4021.42,74.24159999999999,61.868,371.208,3.7120800000000003
479,Piripá,-14.9444,-41.7168,56,202.0,293.0,30049.0,22236.260000000002,3004.9,901.47,1953.185,36.0588,30.049,180.294,1.80294
480,Olindina,-11.3497,-38.3379,56,38.0,63.0,40314.0,29832.36,4031.4,1209.4199999999998,2620.4100000000003,48.376799999999996,40.314,241.88400000000001,2.41884
481,Ruy Barbosa,-5.88745,-35.933,3313,691.0,1223.0,1764358.0,1305624.92,176435.8,52930.74,114683.27,2117.2295999999997,1764.358,10586.148,105.86148
482,Ruy Barbosa,-12.2816,-40.4931,3313,1374.0,2860.0,1764358.0,1305624.92,176435.8,52930.74,114683.27,2117.2295999999997,1764.358,10586.148,105.86148
483,Barra do Mendes,-11.81,-42.059,96,315.0,506.0,62461.0,46221.14,6246.1,1873.83,4059.965,74.9532,62.461,374.766,3.74766
484,Canudos,-9.90014,-39.1471,98,1771.0,3567.0,47078.0,34837.72,4707.8,1412.34,3060.07,56.493599999999994,47.078,282.468,2.82468
485,Itambé,-23.6601,-51.9912,362,1085.0,2183.0,290106.0,214678.44,29010.600000000002,8703.18,18856.89,348.12719999999996,290.106,1740.636,17.40636
486,Itambé,-7.41403,-35.0963,362,9029.0,19790.0,290106.0,214678.44,29010.600000000002,8703.18,18856.89,348.12719999999996,290.106,1740.636,17.40636
487,Itambé,-15.2429,-40.63,362,1885.0,3427.0,290106.0,214678.44,29010.600000000002,8703.18,18856.89,348.12719999999996,290.106,1740.636,17.40636
488,Guajeru,-14.5467,-41.9381,47,120.0,223.0,15885.0,11754.9,1588.5,476.54999999999995,1032.525,19.061999999999998,15.885,95.31,0.9531000000000001
489,Cordeiros,-15.0356,-41.9308,46,2787.0,4789.0,20539.0,15198.86,2053.9,616.17,1335.035,24.6468,20.539,123.23400000000001,1.23234
490,Anguera,-12.1462,-39.2462,21,5003.0,9791.0,12880.0,9531.2,1288.0,386.4,837.2,15.455999999999998,12.88,77.28,0.7728
491,Jussara,-11.0431,-41.9702,989,2353.0,4078.0,735350.0,544159.0,73535.0,22060.5,47797.75,882.42,735.35,4412.1,44.121
492,Jussara,-15.8659,-50.8668,989,1260.0,2576.0,735350.0,544159.0,73535.0,22060.5,47797.75,882.42,735.35,4412.1,44.121
493,Jussara,-23.6219,-52.4693,989,311.0,648.0,735350.0,544159.0,73535.0,22060.5,47797.75,882.42,735.35,4412.1,44.121
494,Matina,-13.9109,-42.8439,96,2813.0,6856.0,35408.0,26201.92,3540.8,1062.24,2301.52,42.489599999999996,35.408,212.448,2.12448
495,Santa Brígida,-9.73227,-38.1209,46,7931.0,14428.0,14923.0,11043.02,1492.3,447.69,969.995,17.9076,14.923,89.538,0.89538
496,Aracatu,-14.428,-41.4648,97,19211.0,32177.0,52976.0,39202.24,5297.6,1589.28,3443.44,63.5712,52.976,317.856,3.17856
497,Mucugê,-13.0053,-41.3703,72,2515.0,4427.0,45110.0,33381.4,4511.0,1353.3,2932.15,54.132,45.11,270.66,2.7066
498,Caldeirão Grande,-11.0208,-40.2956,16,9987.0,17884.0,5577.0,4126.98,557.7,167.31,362.505,6.6924,5.577,33.462,0.33462000000000003
499,Cocos,-14.1814,-44.5352,94,9287.0,15571.0,51451.0,38073.74,5145.1,1543.53,3344.315,61.74119999999999,51.451,308.706,3.08706
500,Canápolis,-13.0725,-44.201,267,1618.0,3677.0,110733.0,81942.42,11073.3,3321.99,7197.645,132.87959999999998,110.733,664.398,6.64398
501,Canápolis,-18.7212,-49.2035,267,42042.0,119808.0,110733.0,81942.42,11073.3,3321.99,7197.645,132.87959999999998,110.733,664.398,6.64398
502,Adustina,-10.5437,-38.1113,33,3362.0,6437.0,12835.0,9497.9,1283.5,385.05,834.275,15.402,12.835,77.01,0.7701
503,Rafael Jambeiro,-12.4053,-39.5007,74,928.0,1502.0,65241.0,48278.34,6524.1,1957.23,4240.665,78.2892,65.241,391.446,3.91446
504,Palmeiras,-12.5059,-41.5809,44,373.0,619.0,24575.0,18185.5,2457.5,737.25,1597.375,29.49,24.575,147.45000000000002,1.4745000000000001
505,Andaraí,-12.8049,-41.3297,62,18453.0,59045.0,30713.0,22727.62,3071.3,921.39,1996.345,36.855599999999995,30.713,184.278,1.84278
506,Ubaíra,-13.2714,-39.666,55,8866.0,26518.0,24493.0,18124.82,2449.3,734.79,1592.045,29.391599999999997,24.493,146.958,1.46958
507,Castro Alves,-12.7579,-39.4248,135,1158.0,2812.0,118220.0,87482.8,11822.0,3546.6,7684.3,141.86399999999998,118.22,709.32,7.0932
508,Itaquara,-13.4459,-39.9378,14,4676.0,9078.0,9864.0,7299.36,986.4,295.91999999999996,641.1600000000001,11.836799999999998,9.864,59.184,0.59184
509,Lagoa Real,-14.0334,-42.1328,97,556.0,942.0,52620.0,38938.8,5262.0,1578.6,3420.3,63.144,52.62,315.72,3.1572
510,Santa Bárbara,-11.9515,-38.9681,338,6649.0,17289.0,162551.0,120287.74,16255.1,4876.53,10565.815,195.06119999999999,162.55100000000002,975.306,9.75306
511,Santa Bárbara,-19.9604,-43.4101,338,616.0,1119.0,162551.0,120287.74,16255.1,4876.53,10565.815,195.06119999999999,162.55100000000002,975.306,9.75306
512,Itiúba,-10.6948,-39.8446,64,554.0,911.0,36520.0,27024.8,3652.0,1095.6,2373.8,43.824,36.52,219.12,2.1912000000000003
513,Ibitiara,-12.6502,-42.2179,98,6118.0,11535.0,33191.0,24561.34,3319.1,995.73,2157.415,39.8292,33.191,199.14600000000002,1.99146
514,Presidente Jânio Quadros,-14.6885,-41.6798,23,140.0,272.0,12701.0,9398.74,1270.1,381.03,825.565,15.2412,12.701,76.206,0.76206
515,Apuarema,-13.8542,-39.7501,27,155.0,353.0,15859.0,11735.66,1585.9,475.77,1030.835,19.0308,15.859,95.154,0.95154
516,Gentio do Ouro,-11.4342,-42.5077,28,4289.0,8955.0,8791.0,6505.34,879.1,263.73,571.4150000000001,10.549199999999999,8.791,52.746,0.52746
517,Nilo Peçanha,-13.604,-39.1091,21,375.0,618.0,12224.0,9045.76,1222.4,366.71999999999997,794.5600000000001,14.6688,12.224,73.344,0.73344
518,Mascote,-15.5542,-39.3016,23,1180.0,2463.0,27827.0,20591.98,2782.7,834.81,1808.755,33.392399999999995,27.826999999999998,166.962,1.66962
519,Novo Triunfo,-10.3182,-38.4014,34,1154.0,2028.0,16815.0,12443.1,1681.5,504.45,1092.9750000000001,20.177999999999997,16.815,100.89,1.0089
520,Buerarema,-14.9595,-39.3028,54,93055.0,194933.0,23234.0,17193.16,2323.4,697.02,1510.21,27.880799999999997,23.234,139.404,1.39404
521,Coribe,-13.8232,-44.4586,109,5873.0,10718.0,44228.0,32728.72,4422.8,1326.84,2874.82,53.0736,44.228,265.368,2.65368
522,Cotegipe,-12.0228,-44.2566,85,146.0,214.0,32698.0,24196.52,3269.8,980.9399999999999,2125.37,39.23759999999999,32.698,196.188,1.96188
523,Iramaia,-13.2902,-40.9595,22,3847.0,7498.0,8793.0,6506.82,879.3,263.78999999999996,571.5450000000001,10.551599999999999,8.793,52.758,0.52758
524,Aporá,-11.6577,-38.0814,32,489.0,1149.0,16580.0,12269.2,1658.0,497.4,1077.7,19.895999999999997,16.580000000000002,99.48,0.9948
525,Aurelino Leal,-14.321,-39.329,12,1822.0,3157.0,7733.0,5722.42,773.3,231.98999999999998,502.64500000000004,9.2796,7.7330000000000005,46.397999999999996,0.46398
526,Macarani,-15.5646,-40.4209,73,26.0,38.0,48024.0,35537.76,4802.4,1440.72,3121.56,57.6288,48.024,288.144,2.88144
527,Andorinha,-10.3482,-39.8391,75,108981.0,304234.0,31254.0,23127.96,3125.4,937.62,2031.51,37.504799999999996,31.254,187.524,1.87524
528,Mundo Novo,-11.8541,-40.4714,809,317.0,487.0,519279.0,384266.46,51927.9,15578.369999999999,33753.135,623.1347999999999,519.279,3115.674,31.15674
529,Mundo Novo,-23.9355,-54.281,809,597.0,1298.0,519279.0,384266.46,51927.9,15578.369999999999,33753.135,623.1347999999999,519.279,3115.674,31.15674
530,Mundo Novo,-13.7729,-50.2814,809,311.0,483.0,519279.0,384266.46,51927.9,15578.369999999999,33753.135,623.1347999999999,519.279,3115.674,31.15674
531,Ribeira do Amparo,-11.0421,-38.4242,53,2632.0,4271.0,21574.0,15964.76,2157.4,647.2199999999999,1402.3100000000002,25.8888,21.574,129.444,1.29444
532,Nova Canaã,-14.7912,-40.1458,38,400.0,742.0,20360.0,15066.4,2036.0,610.8,1323.4,24.432,20.36,122.16,1.2216
533,Sítio do Mato,-13.0801,-43.4689,92,60.0,91.0,34767.0,25727.58,3476.7,1043.01,2259.855,41.7204,34.767,208.602,2.08602
534,Coração de Maria,-12.2333,-38.7487,121,936.0,2506.0,85106.0,62978.44,8510.6,2553.18,5531.89,102.12719999999999,85.106,510.636,5.1063600000000005
535,Santa Luzia,-4.06873,-45.69,1333,7755.0,14936.0,865402.0,640397.48,86540.2,25962.059999999998,56251.130000000005,1038.4823999999999,865.402,5192.412,51.92412
536,Santa Luzia,-15.4342,-39.3287,1333,347.0,947.0,865402.0,640397.48,86540.2,25962.059999999998,56251.130000000005,1038.4823999999999,865.402,5192.412,51.92412
537,Santa Luzia,-19.7548,-43.8497,1333,192.0,287.0,865402.0,640397.48,86540.2,25962.059999999998,56251.130000000005,1038.4823999999999,865.402,5192.412,51.92412
538,Santa Luzia,-6.86092,-36.9178,1333,23972.0,45988.0,865402.0,640397.48,86540.2,25962.059999999998,56251.130000000005,1038.4823999999999,865.402,5192.412,51.92412
539,Conceição do Almeida,-12.7836,-39.1715,61,380.0,679.0,40595.0,30040.3,4059.5,1217.85,2638.675,48.714,40.595,243.57,2.4357
540,Varzedo,-12.9672,-39.3919,38,385.0,615.0,19820.0,14666.8,1982.0,594.6,1288.3,23.784,19.82,118.92,1.1892
541,Ourolândia,-10.9578,-41.0756,71,457.0,844.0,59935.0,44351.9,5993.5,1798.05,3895.775,71.922,59.935,359.61,3.5961
542,Lamarão,-11.773,-38.887,17,155.0,330.0,5560.0,4114.4,556.0,166.8,361.4,6.672,5.5600000000000005,33.36,0.3336
543,Planalto,-14.6654,-40.4718,1184,233.0,389.0,680276.0,503404.24,68027.6,20408.28,44217.94,816.3312,680.2760000000001,4081.656,40.81656
544,Planalto,-27.3297,-53.0575,1184,1068.0,2340.0,680276.0,503404.24,68027.6,20408.28,44217.94,816.3312,680.2760000000001,4081.656,40.81656
545,Planalto,-21.0342,-49.933,1184,146.0,294.0,680276.0,503404.24,68027.6,20408.28,44217.94,816.3312,680.2760000000001,4081.656,40.81656
546,Planalto,-25.7211,-53.7642,1184,320.0,612.0,680276.0,503404.24,68027.6,20408.28,44217.94,816.3312,680.2760000000001,4081.656,40.81656
547,São Félix,-12.6104,-38.9727,21,6051.0,19222.0,6585.0,4872.9,658.5,197.55,428.025,7.901999999999999,6.585000000000001,39.51,0.3951
548,Santa Cruz da Vitória,-14.964,-39.8115,20,345.0,570.0,14682.0,10864.68,1468.2,440.46,954.33,17.618399999999998,14.682,88.092,0.8809199999999999
549,Itaeté,-12.9831,-40.9677,59,235.0,465.0,35537.0,26297.38,3553.7,1066.11,2309.905,42.6444,35.537,213.222,2.1322200000000002
550,Boninal,-12.7069,-41.8286,25,14.0,21.0,16817.0,12444.58,1681.7,504.51,1093.105,20.1804,16.817,100.902,1.00902
551,Itajuípe,-14.6788,-39.3698,72,25861.0,51639.0,30148.0,22309.52,3014.8,904.4399999999999,1959.6200000000001,36.1776,30.148,180.888,1.80888
552,Umburanas,-10.7339,-41.3234,14,419.0,785.0,10184.0,7536.16,1018.4,305.52,661.96,12.220799999999999,10.184000000000001,61.104,0.61104
553,Abaré,-8.72073,-39.1162,62,205.0,445.0,26538.0,19638.12,2653.8,796.14,1724.97,31.845599999999997,26.538,159.228,1.5922800000000001
554,Piatã,-13.1465,-41.7702,72,8671.0,15833.0,28248.0,20903.52,2824.8,847.4399999999999,1836.1200000000001,33.8976,28.248,169.488,1.69488
555,Milagres,-7.29749,-38.9378,198,111.0,184.0,84086.0,62223.64,8408.6,2522.58,5465.59,100.9032,84.086,504.516,5.04516
556,Milagres,-12.8646,-39.8611,198,1137.0,2522.0,84086.0,62223.64,8408.6,2522.58,5465.59,100.9032,84.086,504.516,5.04516
557,Érico Cardoso,-13.4215,-42.1352,58,3202.0,7090.0,18572.0,13743.279999999999,1857.2,557.16,1207.18,22.286399999999997,18.572,111.432,1.11432
558,Ituaçu,-13.8107,-41.3003,203,2128.0,4899.0,74411.0,55064.14,7441.1,2232.33,4836.715,89.2932,74.411,446.466,4.46466
559,Ouriçangas,-12.0175,-38.6166,8,365.0,690.0,7225.0,5346.5,722.5,216.75,469.625,8.669999999999998,7.2250000000000005,43.35,0.4335
560,Ibiassucê,-14.2711,-42.257,129,28845.0,67601.0,68216.0,50479.84,6821.6,2046.48,4434.04,81.85919999999999,68.216,409.296,4.09296
561,São Miguel das Matas,-13.0434,-39.4578,72,1699.0,4549.0,40027.0,29619.98,4002.7,1200.81,2601.755,48.032399999999996,40.027,240.162,2.40162
562,Feira da Mata,-14.2044,-44.2744,42,476.0,770.0,19082.0,14120.68,1908.2,572.4599999999999,1240.3300000000002,22.8984,19.082,114.492,1.14492
563,Abaíra,-13.2488,-41.6619,38,2731.0,4594.0,14967.0,11075.58,1496.7,449.01,972.855,17.9604,14.967,89.802,0.89802
564,Candeal,-11.8049,-39.1203,21,23469.0,96357.0,7666.0,5672.84,766.6,229.98,498.29,9.1992,7.666,45.996,0.45996
565,Itanhém,-17.1642,-40.3321,164,13113.0,26672.0,60165.0,44522.1,6016.5,1804.95,3910.725,72.198,60.165,360.99,3.6099
566,Saubara,-12.7387,-38.7625,32,1890.0,3383.0,12276.0,9084.24,1227.6,368.28,797.94,14.7312,12.276,73.656,0.73656
567,Cândido Sales,-15.4993,-41.2414,92,1939.0,3877.0,48489.0,35881.86,4848.9,1454.6699999999998,3151.7850000000003,58.1868,48.489000000000004,290.934,2.90934
568,Terra Nova,-12.3888,-38.6238,57,85.0,126.0,30721.0,22733.54,3072.1,921.63,1996.865,36.865199999999994,30.721,184.326,1.8432600000000001
569,Terra Nova,-8.22244,-39.3825,57,309.0,587.0,30721.0,22733.54,3072.1,921.63,1996.865,36.865199999999994,30.721,184.326,1.8432600000000001
570,Teodoro Sampaio,-12.295,-38.6347,501,262.0,421.0,238199.0,176267.26,23819.9,7145.969999999999,15482.935000000001,285.8388,238.199,1429.194,14.29194
571,Teodoro Sampaio,-22.5299,-52.1682,501,184.0,354.0,238199.0,176267.26,23819.9,7145.969999999999,15482.935000000001,285.8388,238.199,1429.194,14.29194
572,Antas,-10.3856,-38.3401,43,872.0,1557.0,22835.0,16897.9,2283.5,685.05,1484.275,27.401999999999997,22.835,137.01,1.3701
573,São Domingos,-11.4649,-39.5268,196,2327.0,4102.0,150518.0,111383.32,15051.800000000001,4515.54,9783.67,180.62159999999997,150.518,903.1080000000001,9.03108
574,São Domingos,-26.5548,-52.5313,196,36820.0,89391.0,150518.0,111383.32,15051.800000000001,4515.54,9783.67,180.62159999999997,150.518,903.1080000000001,9.03108
575,São Domingos,-6.80313,-37.9488,196,3737.0,6955.0,150518.0,111383.32,15051.800000000001,4515.54,9783.67,180.62159999999997,150.518,903.1080000000001,9.03108
576,São Domingos,-10.7916,-37.5685,196,1076.0,2073.0,150518.0,111383.32,15051.800000000001,4515.54,9783.67,180.62159999999997,150.518,903.1080000000001,9.03108
577,São Domingos,-13.621,-46.7415,196,4762.0,9375.0,150518.0,111383.32,15051.800000000001,4515.54,9783.67,180.62159999999997,150.518,903.1080000000001,9.03108
578,Cristópolis,-12.2249,-44.4214,94,1134.0,1768.0,38678.0,28621.72,3867.8,1160.34,2514.07,46.413599999999995,38.678000000000004,232.068,2.32068
579,Cabaceiras do Paraguaçu,-12.5317,-39.1902,42,145.0,214.0,38135.0,28219.899999999998,3813.5,1144.05,2478.775,45.76199999999999,38.135,228.81,2.2881
580,Coaraci,-14.637,-39.5556,40,926.0,1641.0,18752.0,13876.48,1875.2,562.56,1218.88,22.502399999999998,18.752,112.512,1.1251200000000001
581,Itaju do Colônia,-15.1366,-39.7283,13,1472.0,2292.0,12150.0,8991.0,1215.0,364.5,789.75,14.579999999999998,12.15,72.9,0.729
582,Brejões,-13.1039,-39.7988,21,398.0,764.0,12860.0,9516.4,1286.0,385.8,835.9,15.431999999999999,12.860000000000001,77.16,0.7716000000000001
583,Riachão das Neves,-11.7508,-44.9143,246,823.0,1325.0,173627.0,128483.98,17362.7,5208.8099999999995,11285.755000000001,208.3524,173.627,1041.762,10.41762
584,Boa Vista do Tupim,-12.6498,-40.6064,45,130.0,192.0,22246.0,16462.04,2224.6,667.38,1445.99,26.695199999999996,22.246,133.476,1.33476
585,Itamari,-13.7782,-39.683,16,2698.0,5333.0,8075.0,5975.5,807.5,242.25,524.875,9.69,8.075,48.45,0.4845
586,Várzea do Poço,-11.5273,-40.3149,26,282.0,467.0,11228.0,8308.72,1122.8,336.84,729.82,13.4736,11.228,67.368,0.67368
587,Sítio do Quinto,-10.3545,-38.2213,29,43.0,81.0,12479.0,9234.46,1247.9,374.37,811.135,14.974799999999998,12.479000000000001,74.874,0.74874
588,Morpará,-11.5569,-43.2766,31,21690.0,46488.0,14756.0,10919.44,1475.6,442.68,959.14,17.707199999999997,14.756,88.536,0.88536
589,Souto Soares,-12.088,-41.6427,40,1720.0,2829.0,13550.0,10027.0,1355.0,406.5,880.75,16.259999999999998,13.55,81.3,0.8130000000000001
590,Taperoá,-13.5321,-39.1009,100,1518.0,2670.0,64832.0,47975.68,6483.2,1944.96,4214.08,77.79839999999999,64.83200000000001,388.992,3.88992
591,Taperoá,-7.20629,-36.8245,100,2406.0,4301.0,64832.0,47975.68,6483.2,1944.96,4214.08,77.79839999999999,64.83200000000001,388.992,3.88992
592,Dário Meira,-14.4229,-39.9031,7,239.0,378.0,3370.0,2493.8,337.0,101.1,219.05,4.044,3.37,20.22,0.2022
593,Itarantim,-15.6528,-40.065,85,1389.0,2325.0,35490.0,26262.6,3549.0,1064.7,2306.85,42.587999999999994,35.49,212.94,2.1294
594,Caturama,-13.3239,-42.2904,63,10741.0,27176.0,25290.0,18714.6,2529.0,758.6999999999999,1643.8500000000001,30.348,25.29,151.74,1.5174
595,Itagi,-14.1615,-40.0131,39,2546.0,4890.0,17850.0,13209.0,1785.0,535.5,1160.25,21.419999999999998,17.85,107.1,1.071
596,Itororó,-15.11,-40.0684,73,15159.0,31345.0,36930.0,27328.2,3693.0,1107.8999999999999,2400.4500000000003,44.315999999999995,36.93,221.58,2.2158
597,Jandaíra,-5.35211,-36.1278,74,5187.0,9288.0,76894.0,56901.56,7689.4,2306.8199999999997,4998.110000000001,92.27279999999999,76.894,461.364,4.61364
598,Jandaíra,-11.5616,-37.7853,74,122.0,248.0,76894.0,56901.56,7689.4,2306.8199999999997,4998.110000000001,92.27279999999999,76.894,461.364,4.61364
599,Esplanada,-11.7942,-37.9432,98,1336.0,2282.0,51890.0,38398.6,5189.0,1556.7,3372.85,62.267999999999994,51.89,311.34,3.1134
600,Itapicuru,-11.3088,-38.2262,57,227.0,444.0,27250.0,20165.0,2725.0,817.5,1771.25,32.699999999999996,27.25,163.5,1.635
601,Quixabeira,-11.4031,-40.12,11,16524.0,40203.0,6610.0,4891.4,661.0,198.29999999999998,429.65000000000003,7.931999999999999,6.61,39.660000000000004,0.3966
602,Maetinga,-14.6623,-41.4915,18,10853.0,22116.0,8326.0,6161.24,832.6,249.77999999999997,541.19,9.9912,8.326,49.956,0.49956
603,Wanderley,-12.1144,-43.8958,102,844.0,2124.0,44122.0,32650.28,4412.2,1323.66,2867.93,52.9464,44.122,264.732,2.64732
604,Jitaúna,-14.0131,-39.8969,39,95.0,164.0,19365.0,14330.1,1936.5,580.9499999999999,1258.7250000000001,23.238,19.365000000000002,116.19,1.1619
605,Coronel João Sá,-10.2847,-37.9198,24,847.0,2563.0,13400.0,9916.0,1340.0,402.0,871.0,16.08,13.4,80.4,0.804
606,Saúde,-10.9428,-40.4155,18,1629.0,2800.0,5681.0,4203.94,568.1,170.43,369.265,6.8172,5.681,34.086,0.34086
607,Cravolândia,-13.3531,-39.8031,8,2114.0,3402.0,5290.0,3914.6,529.0,158.7,343.85,6.348,5.29,31.740000000000002,0.3174
608,Lajedo do Tabocal,-13.4663,-40.2204,17,2864.0,6476.0,16967.0,12555.58,1696.7,509.01,1102.855,20.3604,16.967,101.802,1.01802
609,Iguaí,-14.7528,-40.0894,52,4932.0,12513.0,25408.0,18801.92,2540.8,762.24,1651.52,30.4896,25.408,152.448,1.52448
610,Brejolândia,-12.4815,-43.9679,57,630.0,1127.0,17685.0,13086.9,1768.5,530.55,1149.525,21.221999999999998,17.685,106.11,1.0611
611,Banzaê,-10.5788,-38.6212,33,622.0,1342.0,18490.0,13682.6,1849.0,554.7,1201.85,22.188,18.490000000000002,110.94,1.1094
612,Sapeaçu,-12.7208,-39.1824,57,1095.0,1938.0,26935.0,19931.9,2693.5,808.05,1750.775,32.321999999999996,26.935000000000002,161.61,1.6161
613,Floresta Azul,-14.8629,-39.6579,23,2041.0,3792.0,11551.0,8547.74,1155.1,346.53,750.815,13.861199999999998,11.551,69.306,0.69306
614,Almadina,-14.7089,-39.6415,9,1830.0,3111.0,5851.0,4329.74,585.1,175.52999999999997,380.31500000000005,7.021199999999999,5.851000000000001,35.106,0.35106
615,Ibirapuã,-17.6832,-40.1129,50,381.0,607.0,24599.0,18203.26,2459.9,737.97,1598.935,29.5188,24.599,147.594,1.47594
616,Maracás,-13.4355,-40.4323,73,7949.0,20331.0,46260.0,34232.4,4626.0,1387.8,3006.9,55.51199999999999,46.26,277.56,2.7756
617,Wagner,-12.2819,-41.1715,42,189.0,304.0,26425.0,19554.5,2642.5,792.75,1717.625,31.709999999999997,26.425,158.55,1.5855000000000001
618,Maiquinique,-15.624,-40.2587,31,528.0,970.0,20485.0,15158.9,2048.5,614.55,1331.525,24.581999999999997,20.485,122.91,1.2291
619,Irajuba,-13.2563,-40.0848,10,1444.0,2941.0,4630.0,3426.2000000000003,463.0,138.9,300.95,5.555999999999999,4.63,27.78,0.2778
620,Mirante,-14.2385,-40.7718,36,449.0,1156.0,13670.0,10115.8,1367.0,410.09999999999997,888.5500000000001,16.404,13.67,82.02,0.8202
621,Arataca,-15.2651,-39.419,17,5495.0,11351.0,15545.0,11503.3,1554.5,466.34999999999997,1010.4250000000001,18.653999999999996,15.545000000000002,93.27,0.9327
622,América Dourada,-11.4429,-41.439,30,5453.0,10014.0,28820.0,21326.8,2882.0,864.6,1873.3,34.583999999999996,28.82,172.92,1.7292
623,Lafaiete Coutinho,-13.6541,-40.2119,16,79.0,120.0,15120.0,11188.8,1512.0,453.59999999999997,982.8000000000001,18.144,15.12,90.72,0.9072
624,Quijingue,-10.7505,-39.2137,49,1304.0,2679.0,22960.0,16990.4,2296.0,688.8,1492.4,27.551999999999996,22.96,137.76,1.3776000000000002
625,Gongogi,-14.3195,-39.469,13,634.0,1455.0,10715.0,7929.1,1071.5,321.45,696.475,12.857999999999999,10.715,64.29,0.6429
626,Muquém de São Francisco,-12.065,-43.5497,58,1825.0,2999.0,32680.0,24183.2,3268.0,980.4,2124.2000000000003,39.215999999999994,32.68,196.07999999999998,1.9608
627,Jussari,-15.192,-39.491,9,114.0,186.0,6695.0,4954.3,669.5,200.85,435.175,8.033999999999999,6.695,40.17,0.4017
628,Contendas do Sincorá,-13.7537,-41.048,58,858.0,1402.0,25725.0,19036.5,2572.5,771.75,1672.125,30.869999999999997,25.725,154.35,1.5435
629,Jucuruçu,-16.8488,-40.1641,8,10035.0,27516.0,5915.0,4377.1,591.5,177.45,384.475,7.097999999999999,5.915000000000001,35.49,0.3549
630,Madre de Deus,-12.7446,-38.6153,61,321.0,525.0,22535.0,16675.9,2253.5,676.05,1464.775,27.041999999999998,22.535,135.21,1.3521
631,Caém,-11.0677,-40.432,28,14843.0,29204.0,10330.0,7644.2,1033.0,309.9,671.45,12.395999999999999,10.33,61.980000000000004,0.6198
632,Jiquiriçá,-13.2621,-39.5737,29,178.0,413.0,19495.0,14426.300000000001,1949.5,584.85,1267.175,23.394,19.495,116.97,1.1697
633,Ipecaetá,-12.3028,-39.3069,13,224.0,503.0,7350.0,5439.0,735.0,220.5,477.75,8.82,7.3500000000000005,44.1,0.441
634,Ibirapitanga,-14.1649,-39.3787,25,2000.0,3203.0,14980.0,11085.199999999999,1498.0,449.4,973.7,17.976,14.98,89.88,0.8988
635,Ponto Novo,-10.8653,-40.1311,35,1533.0,2407.0,22075.0,16335.5,2207.5,662.25,1434.875,26.49,22.075,132.45,1.3245
636,São Francisco do Conde,-12.6183,-38.6786,50,1032.0,1855.0,29810.0,22059.4,2981.0,894.3,1937.65,35.772,29.81,178.86,1.7886
637,Santanópolis,-12.0311,-38.8694,24,62.0,103.0,7725.0,5716.5,772.5,231.75,502.125,9.27,7.7250000000000005,46.35,0.4635
638,Vereda,-17.2183,-40.0974,20,323.0,534.0,13920.0,10300.8,1392.0,417.59999999999997,904.8000000000001,16.703999999999997,13.920000000000002,83.52,0.8352
639,Tapiramutá,-11.8475,-40.7927,17,917.0,1571.0,10415.0,7707.1,1041.5,312.45,676.975,12.498,10.415000000000001,62.49,0.6249
640,Nova Itarana,-13.0241,-40.0653,16,611.0,962.0,8885.0,6574.9,888.5,266.54999999999995,577.5250000000001,10.661999999999999,8.885,53.31,0.5331
641,Planaltino,-13.2618,-40.3695,16,66.0,208.0,7680.0,5683.2,768.0,230.4,499.2,9.216,7.68,46.08,0.4608
642,Wenceslau Guimarães,-13.6908,-39.4762,37,5270.0,9933.0,22535.0,16675.9,2253.5,676.05,1464.775,27.041999999999998,22.535,135.21,1.3521
643,Pedro Alexandre,-10.012,-37.8932,15,4764.0,10196.0,6765.0,5006.1,676.5,202.95,439.725,8.117999999999999,6.765000000000001,40.59,0.4059
644,Aiquara,-14.1269,-39.8937,10,382.0,674.0,8005.0,5923.7,800.5,240.15,520.325,9.606,8.005,48.03,0.4803
645,Ibicuí,-14.845,-39.9879,43,1333.0,2622.0,26785.0,19820.9,2678.5,803.55,1741.025,32.141999999999996,26.785,160.71,1.6071
646,Itiruçu,-13.529,-40.1472,20,80.0,120.0,12185.0,9016.9,1218.5,365.55,792.025,14.621999999999998,12.185,73.11,0.7311
647,Firmino Alves,-14.9823,-39.9269,18,2524.0,5004.0,10110.0,7481.4,1011.0,303.3,657.15,12.131999999999998,10.11,60.660000000000004,0.6066
648,Tanquinho,-11.968,-39.1033,29,2591.0,5649.0,19560.0,14474.4,1956.0,586.8,1271.4,23.471999999999998,19.56,117.36,1.1736
649,Ribeirão do Largo,-15.4508,-40.7441,8,12834.0,34119.0,4280.0,3167.2,428.0,128.4,278.20000000000005,5.135999999999999,4.28,25.68,0.25680000000000003
650,Utinga,-12.0783,-41.0954,45,553.0,871.0,31620.0,23398.8,3162.0,948.6,2055.3,37.943999999999996,31.62,189.72,1.8972
651,Água Fria,-11.8618,-38.7639,19,650.0,1169.0,19600.0,14504.0,1960.0,588.0,1274.0,23.52,19.6,117.6,1.1760000000000002
652,Sátiro Dias,-11.5929,-38.5938,25,1074.0,2551.0,13760.0,10182.4,1376.0,412.8,894.4000000000001,16.512,13.76,82.56,0.8256
653,Mirangaba,-10.961,-40.574,26,604.0,918.0,15945.0,11799.300000000001,1594.5,478.34999999999997,1036.425,19.133999999999997,15.945,95.67,0.9567
654,Acajutiba,-11.6575,-38.0197,51,843.0,1549.0,25375.0,18777.5,2537.5,761.25,1649.375,30.449999999999996,25.375,152.25,1.5225
655,Itanagra,-12.2614,-38.0436,19,1072.0,1815.0,9640.0,7133.6,964.0,289.2,626.6,11.568,9.64,57.84,0.5784
656,Lajedão,-17.6056,-40.3383,21,3727.0,6235.0,7460.0,5520.4,746.0,223.79999999999998,484.90000000000003,8.952,7.46,44.76,0.4476
657,Mansidão,-10.7227,-44.0428,25,16739.0,29662.0,10075.0,7455.5,1007.5,302.25,654.875,12.09,10.075,60.45,0.6045
658,Ibiquera,-12.6444,-40.9338,7,472.0,772.0,4835.0,3577.9,483.5,145.05,314.275,5.802,4.835,29.009999999999998,0.2901
659,Caetanos,-14.3347,-40.9175,18,1184.0,2008.0,6615.0,4895.099999999999,661.5,198.45,429.975,7.938,6.615,39.69,0.39690000000000003
660,Serra Preta,-12.156,-39.3305,28,271.0,456.0,13200.0,9768.0,1320.0,396.0,858.0,15.839999999999998,13.2,79.2,0.792
661,Várzea da Roça,-11.6005,-40.1328,27,2762.0,5262.0,12775.0,9453.5,1277.5,383.25,830.375,15.33,12.775,76.65,0.7665
662,Pedrão,-12.1491,-38.6487,11,6765.0,13753.0,5220.0,3862.8,522.0,156.6,339.3,6.263999999999999,5.22,31.32,0.31320000000000003
663,Itagimirim,-16.0819,-39.6133,21,1402.0,2499.0,11860.0,8776.4,1186.0,355.79999999999995,770.9000000000001,14.232,11.86,71.16,0.7116
664,Piraí do Norte,-13.759,-39.3836,19,344.0,529.0,7240.0,5357.6,724.0,217.2,470.6,8.687999999999999,7.24,43.44,0.4344
665,Macururé,-9.16226,-39.0518,25,1988.0,3098.0,9965.0,7374.1,996.5,298.95,647.725,11.958,9.965,59.79,0.5979
666,Caatiba,-14.9699,-40.4092,20,8399.0,17778.0,7620.0,5638.8,762.0,228.6,495.3,9.144,7.62,45.72,0.4572
667,Gavião,-11.4688,-39.7757,5,293981.0,844591.0,2490.0,1842.6000000000001,249.0,74.7,161.85,2.988,2.49,14.940000000000001,0.1494
668,Nova Ibiá,-13.812,-39.6182,10,9023.0,24441.0,10170.0,7525.799999999999,1017.0,305.1,661.05,12.203999999999999,10.17,61.02,0.6102000000000001
669,Aratuípe,-13.0716,-39.0038,17,684.0,1088.0,7175.0,5309.5,717.5,215.25,466.375,8.61,7.175,43.05,0.4305
670,Dom Macedo Costa,-12.9016,-39.1923,22,1764.0,3391.0,15505.0,11473.7,1550.5,465.15,1007.825,18.605999999999998,15.505,93.03,0.9303
671,Macajuba,-12.1326,-40.3571,33,12243.0,25475.0,14210.0,10515.4,1421.0,426.29999999999995,923.6500000000001,17.052,14.21,85.25999999999999,0.8526
672,Lajedinho,-12.3529,-40.9048,4,1397.0,3828.0,2275.0,1683.5,227.5,68.25,147.875,2.7299999999999995,2.275,13.65,0.1365
673,Cardeal da Silva,-11.9472,-37.9469,4,885.0,1629.0,3115.0,2305.1,311.5,93.45,202.475,3.7379999999999995,3.115,18.689999999999998,0.1869
674,Fortaleza,-3.71664,-38.5423,18991,1751.0,4362.0,13568830.0,10040934.2,1356883.0,407064.89999999997,881973.9500000001,16282.595999999998,13568.83,81412.98,814.1298
675,Aquiraz,-3.89929,-38.3896,1403,1937.0,3078.0,2478843.0,1834343.82,247884.30000000002,74365.29,161124.795,2974.6115999999997,2478.843,14873.058,148.73058
676,Eusébio,-3.8925,-38.4559,3415,1504.0,3044.0,2586588.0,1914075.1199999999,258658.80000000002,77597.64,168128.22,3103.9055999999996,2586.588,15519.528,155.19528
677,Maranguape,-3.89143,-38.6829,668,647.0,1131.0,431665.0,319432.1,43166.5,12949.949999999999,28058.225000000002,517.9979999999999,431.665,2589.99,25.899900000000002
678,Sobral,-3.68913,-40.3482,2237,838.0,1509.0,1606038.0,1188468.1199999999,160603.80000000002,48181.14,104392.47,1927.2455999999997,1606.038,9636.228000000001,96.36228
679,Crato,-7.2153,-39.4103,1337,446.0,724.0,846970.0,626757.8,84697.0,25409.1,55053.05,1016.3639999999999,846.97,5081.82,50.818200000000004
680,Icó,-6.39627,-38.8554,409,121.0,186.0,218025.0,161338.5,21802.5,6540.75,14171.625,261.63,218.025,1308.15,13.0815
681,Beberibe,-4.17741,-38.1271,622,352.0,549.0,579586.0,428893.64,57958.6,17387.579999999998,37673.090000000004,695.5031999999999,579.586,3477.516,34.77516
682,Jaguaribe,-5.90213,-38.6227,447,3213.0,5624.0,373032.0,276043.68,37303.2,11190.96,24247.08,447.6384,373.032,2238.192,22.38192
683,Pacajus,-4.17107,-38.465,619,3625.0,6268.0,427298.0,316200.52,42729.8,12818.939999999999,27774.370000000003,512.7575999999999,427.298,2563.788,25.63788
684,Barbalha,-7.2982,-39.3021,841,127.0,231.0,484205.0,358311.7,48420.5,14526.15,31473.325,581.0459999999999,484.205,2905.23,29.0523
685,Juazeiro do Norte,-7.19621,-39.3076,3138,1791.0,3638.0,2108034.0,1559945.16,210803.40000000002,63241.02,137022.21,2529.6407999999997,2108.034,12648.204,126.48204
686,Iguatu,-6.36281,-39.2892,1747,277.0,464.0,1370208.0,1013953.92,137020.80000000002,41106.24,89063.52,1644.2495999999999,1370.208,8221.248,82.21248
687,Iguatu,-24.7153,-53.0827,1747,263.0,468.0,1370208.0,1013953.92,137020.80000000002,41106.24,89063.52,1644.2495999999999,1370.208,8221.248,82.21248
688,Itarema,-2.9248,-39.9167,204,342.0,529.0,160344.0,118654.56,16034.4,4810.32,10422.36,192.41279999999998,160.344,962.064,9.62064
689,Aracati,-4.55826,-37.7679,742,613.0,1138.0,509428.0,376976.72,50942.8,15282.84,33112.82,611.3136,509.428,3056.568,30.56568
690,Brejo Santo,-7.48469,-38.9799,280,245.0,383.0,175657.0,129986.18,17565.7,5269.71,11417.705,210.78839999999997,175.657,1053.942,10.53942
691,Tauá,-5.98585,-40.2968,573,3227.0,5297.0,333502.0,246791.48,33350.200000000004,10005.06,21677.63,400.20239999999995,333.502,2001.012,20.01012
692,Caucaia,-3.72797,-38.6619,2487,4773.0,7369.0,1828766.0,1353286.84,182876.6,54862.979999999996,118869.79000000001,2194.5191999999997,1828.766,10972.596,109.72596
693,Quixeramobim,-5.19067,-39.2889,619,2644.0,4339.0,402165.0,297602.1,40216.5,12064.949999999999,26140.725000000002,482.59799999999996,402.165,2412.9900000000002,24.1299
694,Maracanaú,-3.86699,-38.6259,1789,2430.0,5003.0,1417080.0,1048639.2,141708.0,42512.4,92110.2,1700.4959999999999,1417.08,8502.48,85.0248
695,Trairi,-3.26932,-39.2681,430,7716.0,12832.0,426209.0,315394.66,42620.9,12786.27,27703.585,511.45079999999996,426.209,2557.254,25.57254
696,Ipaporanga,-4.89764,-40.7537,63,4748.0,9749.0,20435.0,15121.9,2043.5,613.05,1328.275,24.522,20.435,122.61,1.2261
697,Acopiara,-6.08911,-39.448,325,2024.0,5556.0,205171.0,151826.54,20517.1,6155.13,13336.115,246.2052,205.171,1231.026,12.31026
698,Quixeré,-5.07148,-37.9802,227,6728.0,12444.0,311102.0,230215.47999999998,31110.2,9333.06,20221.63,373.32239999999996,311.10200000000003,1866.612,18.66612
699,Icapuí,-4.71206,-37.3531,262,14728.0,38663.0,117285.0,86790.9,11728.5,3518.5499999999997,7623.525000000001,140.742,117.28500000000001,703.71,7.0371
700,Itaitinga,-3.96577,-38.5298,514,287.0,702.0,315324.0,233339.76,31532.4,9459.72,20496.06,378.38879999999995,315.324,1891.944,18.91944
701,São Gonçalo do Amarante,-5.79068,-35.3257,1612,9555.0,32471.0,960845.0,711025.3,96084.5,28825.35,62454.925,1153.014,960.845,5765.07,57.6507
702,São Gonçalo do Amarante,-3.60515,-38.9726,1612,971.0,1786.0,960845.0,711025.3,96084.5,28825.35,62454.925,1153.014,960.845,5765.07,57.6507
703,Horizonte,-4.1209,-38.4707,498,1408.0,2292.0,612490.0,453242.6,61249.0,18374.7,39811.85,734.9879999999999,612.4900000000001,3674.94,36.7494
704,Santa Quitéria,-4.32608,-40.1523,342,251.0,407.0,182589.0,135115.86,18258.9,5477.67,11868.285,219.1068,182.589,1095.534,10.95534
705,Forquilha,-3.79945,-40.2634,125,924.0,1822.0,69779.0,51636.46,6977.900000000001,2093.37,4535.635,83.73479999999999,69.779,418.674,4.18674
706,Quixadá,-4.9663,-39.0155,684,429.0,720.0,556319.0,411676.06,55631.9,16689.57,36160.735,667.5827999999999,556.319,3337.914,33.37914
707,Morada Nova,-5.09736,-38.3702,455,519.0,1041.0,447942.0,331477.08,44794.200000000004,13438.26,29116.23,537.5304,447.942,2687.652,26.87652
708,Crateús,-5.16768,-40.6536,918,313.0,493.0,548829.0,406133.46,54882.9,16464.87,35673.885,658.5948,548.8290000000001,3292.974,32.92974
709,Jaguaruana,-4.83151,-37.781,222,661.0,1035.0,203844.0,150844.56,20384.4,6115.32,13249.86,244.6128,203.844,1223.064,12.230640000000001
710,Acaraú,-2.88769,-40.1183,396,4220.0,8155.0,500680.0,370503.2,50068.0,15020.4,32544.2,600.8159999999999,500.68,3004.08,30.0408
711,Fortim,-4.45126,-37.7981,200,4518.0,12465.0,168498.0,124688.52,16849.8,5054.94,10952.37,202.19759999999997,168.498,1010.988,10.10988
712,Jijoca de Jericoacoara,-2.79331,-40.5127,172,520.0,779.0,112568.0,83300.31999999999,11256.8,3377.04,7316.92,135.08159999999998,112.56800000000001,675.408,6.75408
713,Carnaubal,-4.15985,-40.9413,112,3080.0,6725.0,43083.0,31881.420000000002,4308.3,1292.49,2800.395,51.6996,43.083,258.498,2.5849800000000003
714,Cruz,-2.91813,-40.176,326,374.0,560.0,200932.0,148689.68,20093.2,6027.96,13060.58,241.11839999999998,200.93200000000002,1205.592,12.05592
715,Limoeiro do Norte,-5.14392,-38.0847,815,710.0,1177.0,790366.0,584870.84,79036.6,23710.98,51373.79,948.4391999999999,790.366,4742.196,47.42196
716,Campos Sales,-7.06761,-40.3687,102,681.0,1077.0,60909.0,45072.66,6090.9,1827.27,3959.085,73.0908,60.909,365.454,3.65454
717,São Benedito,-4.04713,-40.8596,282,1000.0,1786.0,157632.0,116647.68000000001,15763.2,4728.96,10246.08,189.15839999999997,157.632,945.792,9.45792
718,Itapajé,-3.68314,-39.5855,175,218.0,418.0,108540.0,80319.6,10854.0,3256.2,7055.1,130.248,108.54,651.24,6.5124
719,Granja,-3.12788,-40.8372,212,2751.0,6270.0,111423.0,82453.02,11142.300000000001,3342.69,7242.495,133.70759999999999,111.423,668.538,6.68538
720,Canindé,-4.35162,-39.3155,830,35.0,55.0,439370.0,325133.8,43937.0,13181.099999999999,28559.050000000003,527.2439999999999,439.37,2636.2200000000003,26.3622
721,Cascavel,-24.9573,-53.459,6148,388.0,772.0,5400136.0,3996100.64,540013.6,162004.08,351008.84,6480.1632,5400.136,32400.816,324.00816000000003
722,Cascavel,-4.12967,-38.2412,6148,502.0,999.0,5400136.0,3996100.64,540013.6,162004.08,351008.84,6480.1632,5400.136,32400.816,324.00816000000003
723,Capistrano,-4.45569,-38.9048,46,9017.0,16806.0,26482.0,19596.68,2648.2,794.4599999999999,1721.3300000000002,31.778399999999998,26.482,158.892,1.58892
